[{"lat":32.758,"lon":-117.105196,"Division":"Mid-City","beatName":"823 Redwood Village (Mid-City)","street":"cherokee","Race":"White"},{"lat":32.700495,"lon":-117.055818,"Division":"Southeastern","beatName":"442 Southcrest (Southeastern)","street":NaN,"Race":"Hispanic/Latine(x)"},{"lat":32.841655,"lon":-117.226629,"Division":"Northern","beatName":"111 Clairemont Mesa East (Northern)","street":"marlesta","Race":"Hispanic/Latine(x)"},{"lat":32.785231,"lon":-117.057632,"Division":"Eastern","beatName":"321 Grantville (Eastern)","street":"aero","Race":"Black/African American"},{"lat":32.683312,"lon":-117.043978,"Division":"Southeastern","beatName":"443 Shelltown (Southeastern)","street":"BETA ST","Race":"Black/African American"},{"lat":32.683312,"lon":-117.043978,"Division":"Southeastern","beatName":"443 Shelltown (Southeastern)","street":"MAIN ST","Race":"Hispanic/Latine(x)"},{"lat":32.747518,"lon":-117.100523,"Division":"Mid-City","beatName":"821 Rolando (Mid-City)","street":"UNIVERSITY AVE","Race":"Black/African American"},{"lat":32.729514,"lon":-117.22945,"Division":"Western","beatName":"621 Linda Vista (Western)","street":NaN,"Race":"White"},{"lat":32.706931,"lon":-117.163125,"Division":"Central","beatName":"511 Barrio Logan (Central)","street":NaN,"Race":"Hispanic/Latine(x)"},{"lat":32.73945,"lon":-117.240486,"Division":"Western","beatName":"624 University Heights (Western)","street":NaN,"Race":"White"},{"lat":32.73945,"lon":-117.240486,"Division":"Western","beatName":"624 University Heights (Western)","street":NaN,"Race":"White"},{"lat":32.753447,"lon":-117.094204,"Division":"Mid-City","beatName":"826 Colina Del Sol (Mid-City)","street":"university ave","Race":"Hispanic/Latine(x)"},{"lat":32.578447,"lon":-117.014204,"Division":"Southern","beatName":"712 San Ysidro (Southern)","street":"Beyer Blvd","Race":"Hispanic/Latine(x)"},{"lat":32.578447,"lon":-117.014204,"Division":"Southern","beatName":"712 San Ysidro (Southern)","street":"Beyer Blvd","Race":"Hispanic/Latine(x)"},{"lat":32.578447,"lon":-117.014204,"Division":"Southern","beatName":"712 San Ysidro (Southern)","street":"Beyer Blvd","Race":"Hispanic/Latine(x)"},{"lat":32.578447,"lon":-117.014204,"Division":"Southern","beatName":"712 San Ysidro (Southern)","street":"Beyer Blvd","Race":"Hispanic/Latine(x)"},{"lat":32.697188,"lon":-117.055416,"Division":"Southeastern","beatName":"437 Bay Terraces (Southeastern)","street":"Goode St","Race":"Hispanic/Latine(x)"},{"lat":32.697188,"lon":-117.055416,"Division":"Southeastern","beatName":"437 Bay Terraces (Southeastern)","street":"Paradise Valley Rd","Race":"Black/African American"},{"lat":32.588803,"lon":-117.021871,"Division":"Southern","beatName":"724 Palm City (Southern)","street":"Palm Ave","Race":"Hispanic/Latine(x)"},{"lat":32.716873,"lon":-117.168508,"Division":"Central","beatName":"512 Logan Heights (Central)","street":"Market Street","Race":"Black/African American"},{"lat":32.738447,"lon":-117.235796,"Division":"Western","beatName":"611 Midway District (Western)","street":NaN,"Race":"White"},{"lat":32.748336,"lon":-117.221368,"Division":"Western","beatName":"622 Morena (Western)","street":NaN,"Race":"Hispanic/Latine(x)"},{"lat":32.71049,"lon":-117.155705,"Division":"Central","beatName":"516 Stockton (Central)","street":NaN,"Race":"Hispanic/Latine(x)"},{"lat":32.755,"lon":-117.094,"Division":"Mid-City","beatName":"832 Teralta West (Mid-City)","street":"UNIVERSITY","Race":"Hispanic/Latine(x)"},{"lat":32.683312,"lon":-117.043978,"Division":"Southeastern","beatName":"443 Shelltown (Southeastern)","street":"Birch Street","Race":"Hispanic/Latine(x)"},{"lat":32.716873,"lon":-117.168508,"Division":"Central","beatName":"512 Logan Heights (Central)","street":"IMPERIAL AVE","Race":"Hispanic/Latine(x)"},{"lat":32.711104,"lon":-117.157243,"Division":"Central","beatName":"527 Harborview (Central)","street":"W Grape Street","Race":"White"},{"lat":32.758288,"lon":-117.093259,"Division":"Mid-City","beatName":"822 El Cerrito (Mid-City)","street":"university","Race":"Black/African American"},{"lat":32.758288,"lon":-117.093259,"Division":"Mid-City","beatName":"822 El Cerrito (Mid-City)","street":"university","Race":"Black/African American"},{"lat":32.758288,"lon":-117.093259,"Division":"Mid-City","beatName":"822 El Cerrito (Mid-City)","street":"university","Race":"Black/African American"},{"lat":32.758288,"lon":-117.093259,"Division":"Mid-City","beatName":"822 El Cerrito (Mid-City)","street":"university","Race":"Black/African American"},{"lat":32.758288,"lon":-117.093259,"Division":"Mid-City","beatName":"822 El Cerrito (Mid-City)","street":"university","Race":"Black/African American"},{"lat":32.758288,"lon":-117.093259,"Division":"Mid-City","beatName":"822 El Cerrito (Mid-City)","street":"university","Race":"Black/African American"},{"lat":32.758288,"lon":-117.093259,"Division":"Mid-City","beatName":"822 El Cerrito (Mid-City)","street":"university","Race":"Black/African American"},{"lat":32.758288,"lon":-117.093259,"Division":"Mid-City","beatName":"822 El Cerrito (Mid-City)","street":"university","Race":"Black/African American"},{"lat":32.705965,"lon":-117.165033,"Division":"Unknown","beatName":"999 Unknown (Unknown)","street":"MIssion Village","Race":"Asian"},{"lat":32.71049,"lon":-117.155705,"Division":"Central","beatName":"516 Stockton (Central)","street":"32nd st","Race":"Black/African American"},{"lat":32.697188,"lon":-117.055416,"Division":"Southeastern","beatName":"437 Bay Terraces (Southeastern)","street":"S Woodman St","Race":"Hispanic/Latine(x)"},{"lat":32.695638,"lon":-117.052052,"Division":"Southeastern","beatName":"439 Alta Vista (Southeastern)","street":"Valencia St","Race":"Black/African American"},{"lat":32.736137,"lon":-117.236429,"Division":"Western","beatName":"614 Ocean Beach (Western)","street":"BACON ST","Race":"White"},{"lat":32.838029,"lon":-117.229163,"Division":"Northern","beatName":"115 University City (Northern)","street":"North Torrey Pines RD","Race":"Hispanic/Latine(x)"},{"lat":32.692052,"lon":-117.044362,"Division":"Southeastern","beatName":"445 Chollas View (Southeastern)","street":NaN,"Race":"Black/African American"},{"lat":32.729514,"lon":-117.22945,"Division":"Western","beatName":"621 Linda Vista (Western)","street":"LINDA VISTA","Race":"Hispanic/Latine(x)"},{"lat":32.716873,"lon":-117.168508,"Division":"Central","beatName":"512 Logan Heights (Central)","street":"OCEAN VIEW BLVD","Race":"Hispanic/Latine(x)"},{"lat":32.782998,"lon":-117.047312,"Division":"Eastern","beatName":"313 Kearney Mesa (Eastern)","street":"Convoy","Race":"Asian"},{"lat":32.705965,"lon":-117.165033,"Division":"Unknown","beatName":"999 Unknown (Unknown)","street":NaN,"Race":"White"},{"lat":32.753827,"lon":-117.092592,"Division":"Mid-City","beatName":"834 Castle (Mid-City)","street":NaN,"Race":"Hispanic/Latine(x)"},{"lat":32.685119,"lon":-117.060963,"Division":"Southeastern","beatName":"452 O'Farrell (Southeastern)","street":"SKYLINE DRIVE","Race":"Black/African American"},{"lat":32.751535,"lon":-117.226692,"Division":"Western","beatName":"618 Sunset Cliffs (Western)","street":"DEVONSHIRE","Race":"Middle Eastern or South Asian"},{"lat":32.699735,"lon":-117.046067,"Division":"Southeastern","beatName":"434 Jamacha/Lomita (Southeastern)","street":"SAN VICENTE","Race":"White"},{"lat":32.71049,"lon":-117.155705,"Division":"Central","beatName":"516 Stockton (Central)","street":"32nd","Race":"Black/African American"},{"lat":32.785231,"lon":-117.057632,"Division":"Eastern","beatName":"321 Grantville (Eastern)","street":NaN,"Race":"Black/African American"},{"lat":32.692536,"lon":-117.055438,"Division":"Southeastern","beatName":"447 Ridgeview/Webster (Southeastern)","street":"Euclid","Race":"Black/African American"},{"lat":32.705965,"lon":-117.165033,"Division":"Unknown","beatName":"999 Unknown (Unknown)","street":"main st","Race":"Hispanic/Latine(x)"},{"lat":32.723573,"lon":-117.170157,"Division":"Central","beatName":"521 East Village (Central)","street":"MARKET STREET","Race":"Hispanic/Latine(x)"},{"lat":32.716873,"lon":-117.168508,"Division":"Central","beatName":"512 Logan Heights (Central)","street":"ocean view blvd","Race":"Hispanic/Latine(x)"},{"lat":32.907091,"lon":-117.097558,"Division":"Northeastern","beatName":"242 Mira Mesa (Northeastern)","street":"MIRA MESA BLVD","Race":"White"},{"lat":32.705965,"lon":-117.165033,"Division":"Unknown","beatName":"999 Unknown (Unknown)","street":"Clairemont Mesa Blvd","Race":"Hispanic/Latine(x)"},{"lat":32.723573,"lon":-117.170157,"Division":"Central","beatName":"521 East Village (Central)","street":"11th street","Race":"Hispanic/Latine(x)"},{"lat":32.723573,"lon":-117.170157,"Division":"Central","beatName":"521 East Village (Central)","street":"10th av","Race":"White"},{"lat":32.723573,"lon":-117.170157,"Division":"Central","beatName":"521 East Village (Central)","street":"10th","Race":"Hispanic/Latine(x)"},{"lat":32.723573,"lon":-117.170157,"Division":"Central","beatName":"521 East Village (Central)","street":"11th","Race":"Hispanic/Latine(x)"},{"lat":32.723573,"lon":-117.170157,"Division":"Central","beatName":"521 East Village (Central)","street":"11th","Race":"Middle Eastern or South Asian"},{"lat":32.723573,"lon":-117.170157,"Division":"Central","beatName":"521 East Village (Central)","street":"10th","Race":"White"},{"lat":32.723573,"lon":-117.170157,"Division":"Central","beatName":"521 East Village (Central)","street":"10th","Race":"White"},{"lat":32.716873,"lon":-117.168508,"Division":"Central","beatName":"512 Logan Heights (Central)","street":"Irving","Race":"Hispanic/Latine(x)"},{"lat":32.782998,"lon":-117.047312,"Division":"Eastern","beatName":"313 Kearney Mesa (Eastern)","street":"aero","Race":"Hispanic/Latine(x)"},{"lat":32.758517,"lon":-117.108285,"Division":"Mid-City","beatName":"831 Teralta East (Mid-City)","street":"Euclid Ave","Race":"Asian"},{"lat":32.681981,"lon":-117.045914,"Division":"Southeastern","beatName":"433 Encanto (Southeastern)","street":"Market","Race":"Hispanic/Latine(x)"},{"lat":32.710785,"lon":-117.164541,"Division":"Central","beatName":"517 Golden Hill (Central)","street":"BROADWAY","Race":"Middle Eastern or South Asian"},{"lat":32.683312,"lon":-117.043978,"Division":"Southeastern","beatName":"443 Shelltown (Southeastern)","street":"Vesta St","Race":"Hispanic/Latine(x)"},{"lat":32.683312,"lon":-117.043978,"Division":"Southeastern","beatName":"443 Shelltown (Southeastern)","street":"Vesta St","Race":"Hispanic/Latine(x)"},{"lat":32.683312,"lon":-117.043978,"Division":"Southeastern","beatName":"443 Shelltown (Southeastern)","street":"Vesta St","Race":"Hispanic/Latine(x)"},{"lat":32.683312,"lon":-117.043978,"Division":"Southeastern","beatName":"443 Shelltown (Southeastern)","street":"Vesta St","Race":"Hispanic/Latine(x)"},{"lat":32.683312,"lon":-117.043978,"Division":"Southeastern","beatName":"443 Shelltown (Southeastern)","street":"Vesta St","Race":"Hispanic/Latine(x)"},{"lat":32.683312,"lon":-117.043978,"Division":"Southeastern","beatName":"443 Shelltown (Southeastern)","street":"Vesta St","Race":"Hispanic/Latine(x)"},{"lat":32.683312,"lon":-117.043978,"Division":"Southeastern","beatName":"443 Shelltown (Southeastern)","street":"Vesta St","Race":"Hispanic/Latine(x)"},{"lat":32.683312,"lon":-117.043978,"Division":"Southeastern","beatName":"443 Shelltown (Southeastern)","street":"Vesta St","Race":"Hispanic/Latine(x)"},{"lat":32.706931,"lon":-117.163125,"Division":"Central","beatName":"511 Barrio Logan (Central)","street":"dalbergia st","Race":"Middle Eastern or South Asian"},{"lat":32.69055,"lon":-117.039514,"Division":"Southeastern","beatName":"444 Mt. Hope (Southeastern)","street":"webster","Race":"Hispanic/Latine(x)"},{"lat":32.747161,"lon":-117.222321,"Division":"Western","beatName":"627 Hillcrest (Western)","street":"Sixth Avenue","Race":"Hispanic/Latine(x)"},{"lat":32.576364,"lon":-117.01344,"Division":"Southern","beatName":"721 Egger Highlands (Southern)","street":"Palm","Race":"White"},{"lat":32.699735,"lon":-117.046067,"Division":"Southeastern","beatName":"434 Jamacha/Lomita (Southeastern)","street":"Skyline Dr","Race":"Black/African American"},{"lat":32.697188,"lon":-117.055416,"Division":"Southeastern","beatName":"437 Bay Terraces (Southeastern)","street":"Paradise Valley Rd","Race":"Asian"},{"lat":32.753447,"lon":-117.094204,"Division":"Mid-City","beatName":"826 Colina Del Sol (Mid-City)","street":NaN,"Race":"Asian"},{"lat":32.578447,"lon":-117.014204,"Division":"Southern","beatName":"712 San Ysidro (Southern)","street":"CALLE PRIMERA","Race":"White"},{"lat":32.578447,"lon":-117.014204,"Division":"Southern","beatName":"712 San Ysidro (Southern)","street":"coral crest way","Race":"Hispanic/Latine(x)"},{"lat":32.888465,"lon":-117.103308,"Division":"Northeastern","beatName":"243 Miramar (Northeastern)","street":NaN,"Race":"Asian"},{"lat":32.705965,"lon":-117.165033,"Division":"Unknown","beatName":"999 Unknown (Unknown)","street":NaN,"Race":"Hispanic/Latine(x)"},{"lat":32.907091,"lon":-117.097558,"Division":"Northeastern","beatName":"242 Mira Mesa (Northeastern)","street":"CAPRICORN WAY","Race":"White"},{"lat":32.736364,"lon":-117.22344,"Division":"Western","beatName":"623 Mission Valley West (Western)","street":"hotel circle s","Race":"Black/African American"},{"lat":32.736364,"lon":-117.22344,"Division":"Western","beatName":"623 Mission Valley West (Western)","street":"hotel circlesouth","Race":"Black/African American"},{"lat":32.858769,"lon":-117.227975,"Division":"Northern","beatName":"122 Pacific Beach (Northern)","street":"garnet","Race":"White"},{"lat":32.858769,"lon":-117.227975,"Division":"Northern","beatName":"122 Pacific Beach (Northern)","street":"garnet","Race":"White"},{"lat":32.705965,"lon":-117.165033,"Division":"Unknown","beatName":"999 Unknown (Unknown)","street":"national city blvd","Race":"Black/African American"},{"lat":32.738447,"lon":-117.235796,"Division":"Western","beatName":"611 Midway District (Western)","street":"midway dr","Race":"Hispanic/Latine(x)"},{"lat":32.706931,"lon":-117.163125,"Division":"Central","beatName":"511 Barrio Logan (Central)","street":"Logan Ave","Race":"Hispanic/Latine(x)"},{"lat":32.736364,"lon":-117.22344,"Division":"Western","beatName":"623 Mission Valley West (Western)","street":NaN,"Race":"Black/African American"},{"lat":32.736364,"lon":-117.22344,"Division":"Western","beatName":"623 Mission Valley West (Western)","street":NaN,"Race":"Black/African American"},{"lat":32.736364,"lon":-117.22344,"Division":"Western","beatName":"623 Mission Valley West (Western)","street":NaN,"Race":"Black/African American"},{"lat":32.736364,"lon":-117.22344,"Division":"Western","beatName":"623 Mission Valley West (Western)","street":NaN,"Race":"Black/African American"},{"lat":32.736364,"lon":-117.22344,"Division":"Western","beatName":"623 Mission Valley West (Western)","street":NaN,"Race":"Black/African American"},{"lat":32.736364,"lon":-117.22344,"Division":"Western","beatName":"623 Mission Valley West (Western)","street":NaN,"Race":"Black/African American"},{"lat":32.736364,"lon":-117.22344,"Division":"Western","beatName":"623 Mission Valley West (Western)","street":NaN,"Race":"Black/African American"},{"lat":32.736364,"lon":-117.22344,"Division":"Western","beatName":"623 Mission Valley West (Western)","street":NaN,"Race":"Black/African American"},{"lat":32.758517,"lon":-117.108285,"Division":"Mid-City","beatName":"831 Teralta East (Mid-City)","street":"EL CAJON BLVD","Race":"Hispanic/Latine(x)"},{"lat":32.753447,"lon":-117.094204,"Division":"Mid-City","beatName":"826 Colina Del Sol (Mid-City)","street":"WINONA","Race":"Asian"},{"lat":32.747518,"lon":-117.100523,"Division":"Mid-City","beatName":"821 Rolando (Mid-City)","street":"UNIVERSITY AVE","Race":"Asian"},{"lat":32.755523,"lon":-117.105977,"Division":"Mid-City","beatName":"827 Chollas Creek (Mid-City)","street":NaN,"Race":"Black/African American"},{"lat":32.755523,"lon":-117.105977,"Division":"Mid-City","beatName":"827 Chollas Creek (Mid-City)","street":NaN,"Race":"Black/African American"},{"lat":32.755523,"lon":-117.105977,"Division":"Mid-City","beatName":"827 Chollas Creek (Mid-City)","street":NaN,"Race":"Black/African American"},{"lat":32.755523,"lon":-117.105977,"Division":"Mid-City","beatName":"827 Chollas Creek (Mid-City)","street":NaN,"Race":"Black/African American"},{"lat":32.755523,"lon":-117.105977,"Division":"Mid-City","beatName":"827 Chollas Creek (Mid-City)","street":NaN,"Race":"Black/African American"},{"lat":32.755523,"lon":-117.105977,"Division":"Mid-City","beatName":"827 Chollas Creek (Mid-City)","street":NaN,"Race":"Black/African American"},{"lat":32.755523,"lon":-117.105977,"Division":"Mid-City","beatName":"827 Chollas Creek (Mid-City)","street":NaN,"Race":"Black/African American"},{"lat":32.755523,"lon":-117.105977,"Division":"Mid-City","beatName":"827 Chollas Creek (Mid-City)","street":NaN,"Race":"Black/African American"},{"lat":32.754477,"lon":-117.092518,"Division":"Mid-City","beatName":"833 Fairmount Village (Mid-City)","street":"EUCLID AVE","Race":"Hispanic/Latine(x)"},{"lat":32.838465,"lon":-117.233308,"Division":"Northern","beatName":"124 La Jolla (Northern)","street":"CARDENO DRIVE","Race":"White"},{"lat":32.716873,"lon":-117.168508,"Division":"Central","beatName":"512 Logan Heights (Central)","street":"National Ave","Race":"Black/African American"},{"lat":32.706931,"lon":-117.163125,"Division":"Central","beatName":"511 Barrio Logan (Central)","street":"DALBERGIA","Race":"Black/African American"},{"lat":32.74829,"lon":-117.109948,"Division":"Mid-City","beatName":"837 Fairmount Park (Mid-City)","street":"gateway dr","Race":"White"},{"lat":32.697188,"lon":-117.055416,"Division":"Southeastern","beatName":"437 Bay Terraces (Southeastern)","street":"gatewood","Race":"Hispanic/Latine(x)"},{"lat":32.782998,"lon":-117.047312,"Division":"Eastern","beatName":"313 Kearney Mesa (Eastern)","street":"balboa","Race":"Hispanic/Latine(x)"},{"lat":32.784605,"lon":-117.05521,"Division":"Eastern","beatName":"311 Serra Mesa (Eastern)","street":"MURPHY CANYON ROAD","Race":"Black/African American"},{"lat":32.782998,"lon":-117.047312,"Division":"Eastern","beatName":"313 Kearney Mesa (Eastern)","street":"c m b","Race":"Black/African American"},{"lat":32.782998,"lon":-117.047312,"Division":"Eastern","beatName":"313 Kearney Mesa (Eastern)","street":"c m b","Race":"Hispanic/Latine(x)"},{"lat":32.782998,"lon":-117.047312,"Division":"Eastern","beatName":"313 Kearney Mesa (Eastern)","street":"AERO DR","Race":"Hispanic/Latine(x)"},{"lat":32.763988,"lon":-117.099529,"Division":"Mid-City","beatName":"813 North Park (Mid-City)","street":"iowa","Race":"White"},{"lat":32.763988,"lon":-117.099529,"Division":"Mid-City","beatName":"813 North Park (Mid-City)","street":"iowa","Race":"White"},{"lat":32.763988,"lon":-117.099529,"Division":"Mid-City","beatName":"813 North Park (Mid-City)","street":"iowa","Race":"White"},{"lat":32.763988,"lon":-117.099529,"Division":"Mid-City","beatName":"813 North Park (Mid-City)","street":"iowa","Race":"White"},{"lat":32.763988,"lon":-117.099529,"Division":"Mid-City","beatName":"813 North Park (Mid-City)","street":"iowa","Race":"White"},{"lat":32.763988,"lon":-117.099529,"Division":"Mid-City","beatName":"813 North Park (Mid-City)","street":"iowa","Race":"White"},{"lat":32.763988,"lon":-117.099529,"Division":"Mid-City","beatName":"813 North Park (Mid-City)","street":"iowa","Race":"White"},{"lat":32.763988,"lon":-117.099529,"Division":"Mid-City","beatName":"813 North Park (Mid-City)","street":"iowa","Race":"White"},{"lat":32.578447,"lon":-117.014204,"Division":"Southern","beatName":"712 San Ysidro (Southern)","street":"ORO VISTA ROAD","Race":"Hispanic/Latine(x)"},{"lat":32.696688,"lon":-117.056022,"Division":"Southeastern","beatName":"441 Mountain View (Southeastern)","street":"Ocean View Blvd","Race":"Black/African American"},{"lat":32.696688,"lon":-117.056022,"Division":"Southeastern","beatName":"441 Mountain View (Southeastern)","street":"Ocean View Blvd","Race":"Black/African American"},{"lat":32.696688,"lon":-117.056022,"Division":"Southeastern","beatName":"441 Mountain View (Southeastern)","street":"Ocean View Blvd","Race":"Black/African American"},{"lat":32.696688,"lon":-117.056022,"Division":"Southeastern","beatName":"441 Mountain View (Southeastern)","street":"Ocean View Blvd","Race":"Black/African American"},{"lat":32.696688,"lon":-117.056022,"Division":"Southeastern","beatName":"441 Mountain View (Southeastern)","street":"Ocean View Blvd","Race":"Black/African American"},{"lat":32.696688,"lon":-117.056022,"Division":"Southeastern","beatName":"441 Mountain View (Southeastern)","street":"Ocean View Blvd","Race":"Black/African American"},{"lat":32.696688,"lon":-117.056022,"Division":"Southeastern","beatName":"441 Mountain View (Southeastern)","street":"Ocean View Blvd","Race":"Black/African American"},{"lat":32.696688,"lon":-117.056022,"Division":"Southeastern","beatName":"441 Mountain View (Southeastern)","street":"Ocean View Blvd","Race":"Black/African American"},{"lat":32.696688,"lon":-117.056022,"Division":"Southeastern","beatName":"441 Mountain View (Southeastern)","street":"Ocean View Blvd","Race":"Black/African American"},{"lat":32.696688,"lon":-117.056022,"Division":"Southeastern","beatName":"441 Mountain View (Southeastern)","street":"Ocean View Blvd","Race":"Black/African American"},{"lat":32.696688,"lon":-117.056022,"Division":"Southeastern","beatName":"441 Mountain View (Southeastern)","street":"Ocean View Blvd","Race":"Black/African American"},{"lat":32.696688,"lon":-117.056022,"Division":"Southeastern","beatName":"441 Mountain View (Southeastern)","street":"Ocean View Blvd","Race":"Black/African American"},{"lat":32.696688,"lon":-117.056022,"Division":"Southeastern","beatName":"441 Mountain View (Southeastern)","street":"Ocean View Blvd","Race":"Black/African American"},{"lat":32.696688,"lon":-117.056022,"Division":"Southeastern","beatName":"441 Mountain View (Southeastern)","street":"Ocean View Blvd","Race":"Black/African American"},{"lat":32.696688,"lon":-117.056022,"Division":"Southeastern","beatName":"441 Mountain View (Southeastern)","street":"Ocean View Blvd","Race":"Black/African American"},{"lat":32.696688,"lon":-117.056022,"Division":"Southeastern","beatName":"441 Mountain View (Southeastern)","street":"Ocean View Blvd","Race":"Black/African American"},{"lat":32.696688,"lon":-117.056022,"Division":"Southeastern","beatName":"441 Mountain View (Southeastern)","street":"Ocean View Blvd","Race":"Black/African American"},{"lat":32.696688,"lon":-117.056022,"Division":"Southeastern","beatName":"441 Mountain View (Southeastern)","street":"Ocean View Blvd","Race":"Black/African American"},{"lat":32.696688,"lon":-117.056022,"Division":"Southeastern","beatName":"441 Mountain View (Southeastern)","street":"Ocean View Blvd","Race":"Black/African American"},{"lat":32.696688,"lon":-117.056022,"Division":"Southeastern","beatName":"441 Mountain View (Southeastern)","street":"Ocean View Blvd","Race":"Black/African American"},{"lat":32.696688,"lon":-117.056022,"Division":"Southeastern","beatName":"441 Mountain View (Southeastern)","street":"Ocean View Blvd","Race":"Black/African American"},{"lat":32.696688,"lon":-117.056022,"Division":"Southeastern","beatName":"441 Mountain View (Southeastern)","street":"Ocean View Blvd","Race":"Black/African American"},{"lat":32.696688,"lon":-117.056022,"Division":"Southeastern","beatName":"441 Mountain View (Southeastern)","street":"Ocean View Blvd","Race":"Black/African American"},{"lat":32.696688,"lon":-117.056022,"Division":"Southeastern","beatName":"441 Mountain View (Southeastern)","street":"Ocean View Blvd","Race":"Black/African American"},{"lat":32.696688,"lon":-117.056022,"Division":"Southeastern","beatName":"441 Mountain View (Southeastern)","street":"Ocean View Blvd","Race":"Black/African American"},{"lat":32.696688,"lon":-117.056022,"Division":"Southeastern","beatName":"441 Mountain View (Southeastern)","street":"Ocean View Blvd","Race":"Black/African American"},{"lat":32.696688,"lon":-117.056022,"Division":"Southeastern","beatName":"441 Mountain View (Southeastern)","street":"Ocean View Blvd","Race":"Black/African American"},{"lat":32.706931,"lon":-117.163125,"Division":"Central","beatName":"511 Barrio Logan (Central)","street":"main st","Race":"Hispanic/Latine(x)"},{"lat":32.706931,"lon":-117.163125,"Division":"Central","beatName":"511 Barrio Logan (Central)","street":"dalbergia st","Race":"Black/African American"},{"lat":32.753447,"lon":-117.094204,"Division":"Mid-City","beatName":"826 Colina Del Sol (Mid-City)","street":"TROJAN AVE","Race":"Black/African American"},{"lat":32.571614,"lon":-117.026319,"Division":"Southern","beatName":"713 Otay Mesa (Southern)","street":"BAY CREST","Race":"Hispanic/Latine(x)"},{"lat":32.571614,"lon":-117.026319,"Division":"Southern","beatName":"713 Otay Mesa (Southern)","street":"BAY CREST","Race":"Hispanic/Latine(x)"},{"lat":32.571614,"lon":-117.026319,"Division":"Southern","beatName":"713 Otay Mesa (Southern)","street":"BAY CREST","Race":"Hispanic/Latine(x)"},{"lat":32.571614,"lon":-117.026319,"Division":"Southern","beatName":"713 Otay Mesa (Southern)","street":"BAY CREST","Race":"Hispanic/Latine(x)"},{"lat":32.571614,"lon":-117.026319,"Division":"Southern","beatName":"713 Otay Mesa (Southern)","street":"BAY CREST","Race":"Hispanic/Latine(x)"},{"lat":32.571614,"lon":-117.026319,"Division":"Southern","beatName":"713 Otay Mesa (Southern)","street":"BAY CREST","Race":"Hispanic/Latine(x)"},{"lat":32.571614,"lon":-117.026319,"Division":"Southern","beatName":"713 Otay Mesa (Southern)","street":"BAY CREST","Race":"Hispanic/Latine(x)"},{"lat":32.571614,"lon":-117.026319,"Division":"Southern","beatName":"713 Otay Mesa (Southern)","street":"BAY CREST","Race":"Hispanic/Latine(x)"},{"lat":32.571614,"lon":-117.026319,"Division":"Southern","beatName":"713 Otay Mesa (Southern)","street":"BAY CREST","Race":"Hispanic/Latine(x)"},{"lat":32.578447,"lon":-117.014204,"Division":"Southern","beatName":"712 San Ysidro (Southern)","street":"nb5","Race":"Hispanic/Latine(x)"},{"lat":32.724036,"lon":-117.152468,"Division":"Central","beatName":"523 Gaslamp (Central)","street":"broadway","Race":"Black/African American"},{"lat":32.680674,"lon":-117.042448,"Division":"Southeastern","beatName":"436 Skyline (Southeastern)","street":"skyline","Race":"Black/African American"},{"lat":32.692536,"lon":-117.055438,"Division":"Southeastern","beatName":"447 Ridgeview/Webster (Southeastern)","street":"Lyon St","Race":"Black/African American"},{"lat":32.692536,"lon":-117.055438,"Division":"Southeastern","beatName":"447 Ridgeview/Webster (Southeastern)","street":"Lyon St","Race":"Black/African American"},{"lat":32.692536,"lon":-117.055438,"Division":"Southeastern","beatName":"447 Ridgeview/Webster (Southeastern)","street":"Lyon St","Race":"Black/African American"},{"lat":32.692536,"lon":-117.055438,"Division":"Southeastern","beatName":"447 Ridgeview/Webster (Southeastern)","street":"Lyon St","Race":"Black/African American"},{"lat":32.692536,"lon":-117.055438,"Division":"Southeastern","beatName":"447 Ridgeview/Webster (Southeastern)","street":"Lyon St","Race":"Black/African American"},{"lat":32.692536,"lon":-117.055438,"Division":"Southeastern","beatName":"447 Ridgeview/Webster (Southeastern)","street":"Lyon St","Race":"Black/African American"},{"lat":32.692536,"lon":-117.055438,"Division":"Southeastern","beatName":"447 Ridgeview/Webster (Southeastern)","street":"Lyon St","Race":"Black/African American"},{"lat":32.692536,"lon":-117.055438,"Division":"Southeastern","beatName":"447 Ridgeview/Webster (Southeastern)","street":"Lyon St","Race":"Black/African American"},{"lat":32.680674,"lon":-117.042448,"Division":"Southeastern","beatName":"436 Skyline (Southeastern)","street":"lisbon","Race":"White"},{"lat":32.705965,"lon":-117.165033,"Division":"Unknown","beatName":"999 Unknown (Unknown)","street":"CORONADO AVE","Race":"Hispanic/Latine(x)"},{"lat":32.748418,"lon":-117.106138,"Division":"Mid-City","beatName":"811 Normal Heights (Mid-City)","street":NaN,"Race":"Hispanic/Latine(x)"},{"lat":32.755,"lon":-117.094,"Division":"Mid-City","beatName":"832 Teralta West (Mid-City)","street":"43rd st","Race":"White"},{"lat":32.706931,"lon":-117.163125,"Division":"Central","beatName":"511 Barrio Logan (Central)","street":"una","Race":"White"},{"lat":32.706931,"lon":-117.163125,"Division":"Central","beatName":"511 Barrio Logan (Central)","street":"una","Race":"White"},{"lat":32.706931,"lon":-117.163125,"Division":"Central","beatName":"511 Barrio Logan (Central)","street":"una","Race":"White"},{"lat":32.706931,"lon":-117.163125,"Division":"Central","beatName":"511 Barrio Logan (Central)","street":"una","Race":"White"},{"lat":32.706931,"lon":-117.163125,"Division":"Central","beatName":"511 Barrio Logan (Central)","street":"una","Race":"White"},{"lat":32.706931,"lon":-117.163125,"Division":"Central","beatName":"511 Barrio Logan (Central)","street":"una","Race":"White"},{"lat":32.706931,"lon":-117.163125,"Division":"Central","beatName":"511 Barrio Logan (Central)","street":"una","Race":"White"},{"lat":32.706931,"lon":-117.163125,"Division":"Central","beatName":"511 Barrio Logan (Central)","street":"una","Race":"White"},{"lat":32.755,"lon":-117.094,"Division":"Mid-City","beatName":"832 Teralta West (Mid-City)","street":"EL CAJON","Race":"Hispanic/Latine(x)"},{"lat":32.738447,"lon":-117.235796,"Division":"Western","beatName":"611 Midway District (Western)","street":NaN,"Race":"Hispanic/Latine(x)"},{"lat":32.758517,"lon":-117.108285,"Division":"Mid-City","beatName":"831 Teralta East (Mid-City)","street":"university","Race":"Hispanic/Latine(x)"},{"lat":32.847,"lon":-117.224804,"Division":"Northern","beatName":"123 Mission Bay Park (Northern)","street":"West Mission Bay Dr","Race":"Hispanic/Latine(x)"},{"lat":32.69856,"lon":-117.047219,"Division":"Southeastern","beatName":"451 Oak Park (Southeastern)","street":"grape","Race":"Black/African American"},{"lat":32.696688,"lon":-117.056022,"Division":"Southeastern","beatName":"441 Mountain View (Southeastern)","street":"Ocean View Blvd","Race":"Hispanic/Latine(x)"},{"lat":32.696688,"lon":-117.056022,"Division":"Southeastern","beatName":"441 Mountain View (Southeastern)","street":"South 40th St","Race":"Black/African American"},{"lat":32.696688,"lon":-117.056022,"Division":"Southeastern","beatName":"441 Mountain View (Southeastern)","street":"South 40th St","Race":"Black/African American"},{"lat":32.696688,"lon":-117.056022,"Division":"Southeastern","beatName":"441 Mountain View (Southeastern)","street":"South 40th St","Race":"Black/African American"},{"lat":32.696688,"lon":-117.056022,"Division":"Southeastern","beatName":"441 Mountain View (Southeastern)","street":"South 40th St","Race":"Black/African American"},{"lat":32.696688,"lon":-117.056022,"Division":"Southeastern","beatName":"441 Mountain View (Southeastern)","street":"South 40th St","Race":"Black/African American"},{"lat":32.696688,"lon":-117.056022,"Division":"Southeastern","beatName":"441 Mountain View (Southeastern)","street":"South 40th St","Race":"Black/African American"},{"lat":32.696688,"lon":-117.056022,"Division":"Southeastern","beatName":"441 Mountain View (Southeastern)","street":"South 40th St","Race":"Black/African American"},{"lat":32.696688,"lon":-117.056022,"Division":"Southeastern","beatName":"441 Mountain View (Southeastern)","street":"South 40th St","Race":"Black/African American"},{"lat":32.696688,"lon":-117.056022,"Division":"Southeastern","beatName":"441 Mountain View (Southeastern)","street":"South 40th St","Race":"Black/African American"},{"lat":32.696688,"lon":-117.056022,"Division":"Southeastern","beatName":"441 Mountain View (Southeastern)","street":"South 40th St","Race":"Black/African American"},{"lat":32.696688,"lon":-117.056022,"Division":"Southeastern","beatName":"441 Mountain View (Southeastern)","street":"South 40th St","Race":"Black/African American"},{"lat":32.696688,"lon":-117.056022,"Division":"Southeastern","beatName":"441 Mountain View (Southeastern)","street":"South 40th St","Race":"Black/African American"},{"lat":32.696688,"lon":-117.056022,"Division":"Southeastern","beatName":"441 Mountain View (Southeastern)","street":"South 40th St","Race":"Black/African American"},{"lat":32.696688,"lon":-117.056022,"Division":"Southeastern","beatName":"441 Mountain View (Southeastern)","street":"South 40th St","Race":"Black/African American"},{"lat":32.696688,"lon":-117.056022,"Division":"Southeastern","beatName":"441 Mountain View (Southeastern)","street":"South 40th St","Race":"Black/African American"},{"lat":32.696688,"lon":-117.056022,"Division":"Southeastern","beatName":"441 Mountain View (Southeastern)","street":"South 40th St","Race":"Black/African American"},{"lat":32.696688,"lon":-117.056022,"Division":"Southeastern","beatName":"441 Mountain View (Southeastern)","street":"South 40th St","Race":"Black/African American"},{"lat":32.696688,"lon":-117.056022,"Division":"Southeastern","beatName":"441 Mountain View (Southeastern)","street":"South 40th St","Race":"Black/African American"},{"lat":32.696688,"lon":-117.056022,"Division":"Southeastern","beatName":"441 Mountain View (Southeastern)","street":"South 40th St","Race":"Black/African American"},{"lat":32.696688,"lon":-117.056022,"Division":"Southeastern","beatName":"441 Mountain View (Southeastern)","street":"South 40th St","Race":"Black/African American"},{"lat":32.696688,"lon":-117.056022,"Division":"Southeastern","beatName":"441 Mountain View (Southeastern)","street":"South 40th St","Race":"Black/African American"},{"lat":32.696688,"lon":-117.056022,"Division":"Southeastern","beatName":"441 Mountain View (Southeastern)","street":"South 40th St","Race":"Black/African American"},{"lat":32.696688,"lon":-117.056022,"Division":"Southeastern","beatName":"441 Mountain View (Southeastern)","street":"South 40th St","Race":"Black/African American"},{"lat":32.696688,"lon":-117.056022,"Division":"Southeastern","beatName":"441 Mountain View (Southeastern)","street":"South 40th St","Race":"Black/African American"},{"lat":32.696688,"lon":-117.056022,"Division":"Southeastern","beatName":"441 Mountain View (Southeastern)","street":"South 40th St","Race":"Black/African American"},{"lat":32.696688,"lon":-117.056022,"Division":"Southeastern","beatName":"441 Mountain View (Southeastern)","street":"South 40th St","Race":"Black/African American"},{"lat":32.696688,"lon":-117.056022,"Division":"Southeastern","beatName":"441 Mountain View (Southeastern)","street":"South 40th St","Race":"Black/African American"},{"lat":32.696688,"lon":-117.056022,"Division":"Southeastern","beatName":"441 Mountain View (Southeastern)","street":"Logan Ave","Race":"Hispanic/Latine(x)"},{"lat":32.696688,"lon":-117.056022,"Division":"Southeastern","beatName":"441 Mountain View (Southeastern)","street":"Logan Ave","Race":"Hispanic/Latine(x)"},{"lat":32.696688,"lon":-117.056022,"Division":"Southeastern","beatName":"441 Mountain View (Southeastern)","street":"Logan Ave","Race":"Hispanic/Latine(x)"},{"lat":32.696688,"lon":-117.056022,"Division":"Southeastern","beatName":"441 Mountain View (Southeastern)","street":"Logan Ave","Race":"Hispanic/Latine(x)"},{"lat":32.696688,"lon":-117.056022,"Division":"Southeastern","beatName":"441 Mountain View (Southeastern)","street":"Logan Ave","Race":"Hispanic/Latine(x)"},{"lat":32.696688,"lon":-117.056022,"Division":"Southeastern","beatName":"441 Mountain View (Southeastern)","street":"Logan Ave","Race":"Hispanic/Latine(x)"},{"lat":32.696688,"lon":-117.056022,"Division":"Southeastern","beatName":"441 Mountain View (Southeastern)","street":"Logan Ave","Race":"Hispanic/Latine(x)"},{"lat":32.696688,"lon":-117.056022,"Division":"Southeastern","beatName":"441 Mountain View (Southeastern)","street":"Logan Ave","Race":"Hispanic/Latine(x)"},{"lat":32.798386,"lon":-117.043681,"Division":"Eastern","beatName":"327 College East (Eastern)","street":"college","Race":"Hispanic/Latine(x)"},{"lat":32.907091,"lon":-117.097558,"Division":"Northeastern","beatName":"242 Mira Mesa (Northeastern)","street":"Hillery Dr","Race":"Asian"},{"lat":32.695909,"lon":-117.048958,"Division":"Southeastern","beatName":"446 Lincoln Park (Southeastern)","street":"messina","Race":"Black/African American"},{"lat":32.695909,"lon":-117.048958,"Division":"Southeastern","beatName":"446 Lincoln Park (Southeastern)","street":"messina","Race":"Black/African American"},{"lat":32.695909,"lon":-117.048958,"Division":"Southeastern","beatName":"446 Lincoln Park (Southeastern)","street":"messina","Race":"Black/African American"},{"lat":32.695909,"lon":-117.048958,"Division":"Southeastern","beatName":"446 Lincoln Park (Southeastern)","street":"messina","Race":"Black/African American"},{"lat":32.695909,"lon":-117.048958,"Division":"Southeastern","beatName":"446 Lincoln Park (Southeastern)","street":"messina","Race":"Black/African American"},{"lat":32.695909,"lon":-117.048958,"Division":"Southeastern","beatName":"446 Lincoln Park (Southeastern)","street":"messina","Race":"Black/African American"},{"lat":32.695909,"lon":-117.048958,"Division":"Southeastern","beatName":"446 Lincoln Park (Southeastern)","street":"messina","Race":"Black/African American"},{"lat":32.695909,"lon":-117.048958,"Division":"Southeastern","beatName":"446 Lincoln Park (Southeastern)","street":"messina","Race":"Black/African American"},{"lat":32.716873,"lon":-117.168508,"Division":"Central","beatName":"512 Logan Heights (Central)","street":"S 31ST ST","Race":"Hispanic/Latine(x)"},{"lat":32.705965,"lon":-117.165033,"Division":"Unknown","beatName":"999 Unknown (Unknown)","street":NaN,"Race":"White"},{"lat":32.748336,"lon":-117.221368,"Division":"Western","beatName":"622 Morena (Western)","street":"napa st","Race":"Hispanic/Latine(x)"},{"lat":32.705965,"lon":-117.165033,"Division":"Unknown","beatName":"999 Unknown (Unknown)","street":"11th","Race":"White"},{"lat":32.838465,"lon":-117.233308,"Division":"Northern","beatName":"124 La Jolla (Northern)","street":NaN,"Race":"White"},{"lat":32.738447,"lon":-117.235796,"Division":"Western","beatName":"611 Midway District (Western)","street":"midway","Race":"White"},{"lat":32.705965,"lon":-117.165033,"Division":"Unknown","beatName":"999 Unknown (Unknown)","street":NaN,"Race":"Black/African American"},{"lat":32.706931,"lon":-117.163125,"Division":"Central","beatName":"511 Barrio Logan (Central)","street":"Main St","Race":"Hispanic/Latine(x)"},{"lat":32.782998,"lon":-117.047312,"Division":"Eastern","beatName":"313 Kearney Mesa (Eastern)","street":NaN,"Race":"Middle Eastern or South Asian"},{"lat":32.724036,"lon":-117.152468,"Division":"Central","beatName":"523 Gaslamp (Central)","street":"broadway","Race":"Hispanic/Latine(x)"},{"lat":32.705965,"lon":-117.165033,"Division":"Unknown","beatName":"999 Unknown (Unknown)","street":"Turquopise Street","Race":"Hispanic/Latine(x)"},{"lat":32.681981,"lon":-117.045914,"Division":"Southeastern","beatName":"433 Encanto (Southeastern)","street":"Mallard Street","Race":"Hispanic/Latine(x)"},{"lat":32.705965,"lon":-117.165033,"Division":"Unknown","beatName":"999 Unknown (Unknown)","street":"11th","Race":"Black/African American"},{"lat":32.681981,"lon":-117.045914,"Division":"Southeastern","beatName":"433 Encanto (Southeastern)","street":"Mallard Street","Race":"Hispanic/Latine(x)"},{"lat":32.705965,"lon":-117.165033,"Division":"Unknown","beatName":"999 Unknown (Unknown)","street":NaN,"Race":"White"},{"lat":32.729514,"lon":-117.22945,"Division":"Western","beatName":"621 Linda Vista (Western)","street":"LINDA VISTA","Race":"White"},{"lat":32.716873,"lon":-117.168508,"Division":"Central","beatName":"512 Logan Heights (Central)","street":"ocean view blvd","Race":"Hispanic/Latine(x)"},{"lat":32.736364,"lon":-117.22344,"Division":"Western","beatName":"623 Mission Valley West (Western)","street":"HCN","Race":"Hispanic/Latine(x)"},{"lat":32.705965,"lon":-117.165033,"Division":"Unknown","beatName":"999 Unknown (Unknown)","street":NaN,"Race":"Black/African American"},{"lat":32.906068,"lon":-117.104408,"Division":"Northeastern","beatName":"233 Rancho Penasquitos (Northeastern)","street":"Carmel Mountain Rd","Race":"White"},{"lat":32.747161,"lon":-117.222321,"Division":"Western","beatName":"627 Hillcrest (Western)","street":NaN,"Race":"Hispanic/Latine(x)"},{"lat":32.578447,"lon":-117.014204,"Division":"Southern","beatName":"712 San Ysidro (Southern)","street":"CAMINO DE LA PLAZA","Race":"Hispanic/Latine(x)"},{"lat":32.782998,"lon":-117.047312,"Division":"Eastern","beatName":"313 Kearney Mesa (Eastern)","street":"ENGINEER RD","Race":"White"},{"lat":32.755,"lon":-117.094,"Division":"Mid-City","beatName":"832 Teralta West (Mid-City)","street":"university","Race":"White"},{"lat":32.784605,"lon":-117.05521,"Division":"Eastern","beatName":"311 Serra Mesa (Eastern)","street":"MISSION VILLAGE","Race":"Black/African American"},{"lat":32.578447,"lon":-117.014204,"Division":"Southern","beatName":"712 San Ysidro (Southern)","street":"w seaward ave","Race":"Hispanic/Latine(x)"},{"lat":32.748336,"lon":-117.221368,"Division":"Western","beatName":"622 Morena (Western)","street":NaN,"Race":"White"},{"lat":32.706931,"lon":-117.163125,"Division":"Central","beatName":"511 Barrio Logan (Central)","street":NaN,"Race":"White"},{"lat":32.706931,"lon":-117.163125,"Division":"Central","beatName":"511 Barrio Logan (Central)","street":NaN,"Race":"White"},{"lat":32.706931,"lon":-117.163125,"Division":"Central","beatName":"511 Barrio Logan (Central)","street":NaN,"Race":"White"},{"lat":32.706931,"lon":-117.163125,"Division":"Central","beatName":"511 Barrio Logan (Central)","street":NaN,"Race":"White"},{"lat":32.706931,"lon":-117.163125,"Division":"Central","beatName":"511 Barrio Logan (Central)","street":NaN,"Race":"White"},{"lat":32.706931,"lon":-117.163125,"Division":"Central","beatName":"511 Barrio Logan (Central)","street":NaN,"Race":"White"},{"lat":32.706931,"lon":-117.163125,"Division":"Central","beatName":"511 Barrio Logan (Central)","street":NaN,"Race":"White"},{"lat":32.706931,"lon":-117.163125,"Division":"Central","beatName":"511 Barrio Logan (Central)","street":NaN,"Race":"White"},{"lat":32.737638,"lon":-117.240231,"Division":"Western","beatName":"625 Old Town (Western)","street":"Taylor St","Race":"Hispanic/Latine(x)"},{"lat":32.738447,"lon":-117.235796,"Division":"Western","beatName":"611 Midway District (Western)","street":"sports arena","Race":"White"},{"lat":32.706931,"lon":-117.163125,"Division":"Central","beatName":"511 Barrio Logan (Central)","street":"DALBERGIA","Race":"Black/African American"},{"lat":32.723573,"lon":-117.170157,"Division":"Central","beatName":"521 East Village (Central)","street":"MARKET","Race":"White"},{"lat":32.907091,"lon":-117.097558,"Division":"Northeastern","beatName":"242 Mira Mesa (Northeastern)","street":NaN,"Race":"Asian"},{"lat":32.782998,"lon":-117.047312,"Division":"Eastern","beatName":"313 Kearney Mesa (Eastern)","street":"RUFFIN","Race":"Hispanic/Latine(x)"},{"lat":32.578447,"lon":-117.014204,"Division":"Southern","beatName":"712 San Ysidro (Southern)","street":"e. san ysidro blvd","Race":"Hispanic/Latine(x)"},{"lat":32.723573,"lon":-117.170157,"Division":"Central","beatName":"521 East Village (Central)","street":"K","Race":"Hispanic/Latine(x)"},{"lat":32.706931,"lon":-117.163125,"Division":"Central","beatName":"511 Barrio Logan (Central)","street":"NATIONAL CITY BOULEVARD","Race":"Hispanic/Latine(x)"},{"lat":32.571614,"lon":-117.026319,"Division":"Southern","beatName":"713 Otay Mesa (Southern)","street":"coronado ave","Race":"Hispanic/Latine(x)"},{"lat":32.71049,"lon":-117.155705,"Division":"Central","beatName":"516 Stockton (Central)","street":"J ST","Race":"Hispanic/Latine(x)"},{"lat":32.697188,"lon":-117.055416,"Division":"Southeastern","beatName":"437 Bay Terraces (Southeastern)","street":"Paradise Valley Road","Race":"Black/African American"},{"lat":32.738447,"lon":-117.235796,"Division":"Western","beatName":"611 Midway District (Western)","street":"pac highway","Race":"Hispanic/Latine(x)"},{"lat":32.755,"lon":-117.094,"Division":"Mid-City","beatName":"832 Teralta West (Mid-City)","street":"42ND STREET","Race":"Hispanic/Latine(x)"},{"lat":32.699735,"lon":-117.046067,"Division":"Southeastern","beatName":"434 Jamacha/Lomita (Southeastern)","street":"Jamacha Rd","Race":"Hispanic/Latine(x)"},{"lat":32.699735,"lon":-117.046067,"Division":"Southeastern","beatName":"434 Jamacha/Lomita (Southeastern)","street":"Jamacha Rd","Race":"Hispanic/Latine(x)"}]