[{"lat":32.581097,"lon":-117.011067,"Division":"Southern","beatName":"722 Nestor (Southern)","street":NaN,"Race":"Hispanic/Latine(x)"},{"lat":32.581097,"lon":-117.011067,"Division":"Southern","beatName":"722 Nestor (Southern)","street":NaN,"Race":"Hispanic/Latine(x)"},{"lat":32.706931,"lon":-117.163125,"Division":"Central","beatName":"511 Barrio Logan (Central)","street":"main","Race":"Black/African American"},{"lat":32.692536,"lon":-117.055438,"Division":"Southeastern","beatName":"447 Ridgeview/Webster (Southeastern)","street":"vesta","Race":"Hispanic/Latine(x)"},{"lat":32.888465,"lon":-117.103308,"Division":"Northeastern","beatName":"243 Miramar (Northeastern)","street":"Miramar Way","Race":"Hispanic/Latine(x)"},{"lat":32.888465,"lon":-117.103308,"Division":"Northeastern","beatName":"243 Miramar (Northeastern)","street":"Miramar Way","Race":"White"},{"lat":32.898958,"lon":-117.094091,"Division":"Northeastern","beatName":"234 Rancho Bernardo (Northeastern)","street":"Miramar way","Race":"Hispanic/Latine(x)"},{"lat":32.898958,"lon":-117.094091,"Division":"Northeastern","beatName":"234 Rancho Bernardo (Northeastern)","street":"Miramar way","Race":"Black/African American"},{"lat":32.692536,"lon":-117.055438,"Division":"Southeastern","beatName":"447 Ridgeview/Webster (Southeastern)","street":"49th","Race":"Hispanic/Latine(x)"},{"lat":32.695909,"lon":-117.048958,"Division":"Southeastern","beatName":"446 Lincoln Park (Southeastern)","street":"WIGHTMAN STREET","Race":"Hispanic/Latine(x)"},{"lat":32.695909,"lon":-117.048958,"Division":"Southeastern","beatName":"446 Lincoln Park (Southeastern)","street":"WIGHTMAN STREET","Race":"Hispanic/Latine(x)"},{"lat":32.695909,"lon":-117.048958,"Division":"Southeastern","beatName":"446 Lincoln Park (Southeastern)","street":"WIGHTMAN STREET","Race":"Hispanic/Latine(x)"},{"lat":32.695909,"lon":-117.048958,"Division":"Southeastern","beatName":"446 Lincoln Park (Southeastern)","street":"WIGHTMAN STREET","Race":"Hispanic/Latine(x)"},{"lat":32.695909,"lon":-117.048958,"Division":"Southeastern","beatName":"446 Lincoln Park (Southeastern)","street":"WIGHTMAN STREET","Race":"Hispanic/Latine(x)"},{"lat":32.695909,"lon":-117.048958,"Division":"Southeastern","beatName":"446 Lincoln Park (Southeastern)","street":"WIGHTMAN STREET","Race":"Hispanic/Latine(x)"},{"lat":32.695909,"lon":-117.048958,"Division":"Southeastern","beatName":"446 Lincoln Park (Southeastern)","street":"WIGHTMAN STREET","Race":"Hispanic/Latine(x)"},{"lat":32.695909,"lon":-117.048958,"Division":"Southeastern","beatName":"446 Lincoln Park (Southeastern)","street":"WIGHTMAN STREET","Race":"Hispanic/Latine(x)"},{"lat":32.581097,"lon":-117.011067,"Division":"Southern","beatName":"722 Nestor (Southern)","street":NaN,"Race":"Black/African American"},{"lat":32.581097,"lon":-117.011067,"Division":"Southern","beatName":"722 Nestor (Southern)","street":NaN,"Race":"Hispanic/Latine(x)"},{"lat":32.683312,"lon":-117.043978,"Division":"Southeastern","beatName":"443 Shelltown (Southeastern)","street":"s 42","Race":"Hispanic/Latine(x)"},{"lat":32.710136,"lon":-117.152195,"Division":"Central","beatName":"515 Grant Hill (Central)","street":NaN,"Race":"Hispanic/Latine(x)"},{"lat":32.683312,"lon":-117.043978,"Division":"Southeastern","beatName":"443 Shelltown (Southeastern)","street":"National Ave","Race":"Hispanic/Latine(x)"},{"lat":32.754477,"lon":-117.092518,"Division":"Mid-City","beatName":"833 Fairmount Village (Mid-City)","street":"44TH STREET","Race":"Hispanic/Latine(x)"},{"lat":32.696688,"lon":-117.056022,"Division":"Southeastern","beatName":"441 Mountain View (Southeastern)","street":"national ave","Race":"White"},{"lat":32.680674,"lon":-117.042448,"Division":"Southeastern","beatName":"436 Skyline (Southeastern)","street":"SKYLINE DR","Race":"Asian"},{"lat":32.683312,"lon":-117.043978,"Division":"Southeastern","beatName":"443 Shelltown (Southeastern)","street":"division","Race":"White"},{"lat":32.683312,"lon":-117.043978,"Division":"Southeastern","beatName":"443 Shelltown (Southeastern)","street":"division","Race":"White"},{"lat":32.683312,"lon":-117.043978,"Division":"Southeastern","beatName":"443 Shelltown (Southeastern)","street":"division","Race":"White"},{"lat":32.683312,"lon":-117.043978,"Division":"Southeastern","beatName":"443 Shelltown (Southeastern)","street":"division","Race":"White"},{"lat":32.683312,"lon":-117.043978,"Division":"Southeastern","beatName":"443 Shelltown (Southeastern)","street":"division","Race":"White"},{"lat":32.683312,"lon":-117.043978,"Division":"Southeastern","beatName":"443 Shelltown (Southeastern)","street":"division","Race":"White"},{"lat":32.683312,"lon":-117.043978,"Division":"Southeastern","beatName":"443 Shelltown (Southeastern)","street":"division","Race":"White"},{"lat":32.683312,"lon":-117.043978,"Division":"Southeastern","beatName":"443 Shelltown (Southeastern)","street":"division","Race":"White"},{"lat":32.585395,"lon":-117.01479,"Division":"Southern","beatName":"723 Otay Mesa West (Southern)","street":NaN,"Race":"Hispanic/Latine(x)"},{"lat":32.716873,"lon":-117.168508,"Division":"Central","beatName":"512 Logan Heights (Central)","street":"national ave","Race":"White"},{"lat":32.683312,"lon":-117.043978,"Division":"Southeastern","beatName":"443 Shelltown (Southeastern)","street":"cottonwood","Race":"Hispanic/Latine(x)"},{"lat":32.705965,"lon":-117.165033,"Division":"Unknown","beatName":"999 Unknown (Unknown)","street":"Bonita Rd","Race":"Hispanic/Latine(x)"},{"lat":32.716873,"lon":-117.168508,"Division":"Central","beatName":"512 Logan Heights (Central)","street":"s gregory","Race":"Hispanic/Latine(x)"},{"lat":32.723573,"lon":-117.170157,"Division":"Central","beatName":"521 East Village (Central)","street":"Island","Race":"Hispanic/Latine(x)"},{"lat":32.7114,"lon":-117.149897,"Division":"Central","beatName":"514 Sherman Heights (Central)","street":"22ND","Race":"Black/African American"},{"lat":32.7114,"lon":-117.149897,"Division":"Central","beatName":"514 Sherman Heights (Central)","street":"22ND","Race":"Black/African American"},{"lat":32.7114,"lon":-117.149897,"Division":"Central","beatName":"514 Sherman Heights (Central)","street":"22ND","Race":"Black/African American"},{"lat":32.7114,"lon":-117.149897,"Division":"Central","beatName":"514 Sherman Heights (Central)","street":"22ND","Race":"Black/African American"},{"lat":32.7114,"lon":-117.149897,"Division":"Central","beatName":"514 Sherman Heights (Central)","street":"22ND","Race":"Black/African American"},{"lat":32.7114,"lon":-117.149897,"Division":"Central","beatName":"514 Sherman Heights (Central)","street":"22ND","Race":"Black/African American"},{"lat":32.7114,"lon":-117.149897,"Division":"Central","beatName":"514 Sherman Heights (Central)","street":"22ND","Race":"Black/African American"},{"lat":32.7114,"lon":-117.149897,"Division":"Central","beatName":"514 Sherman Heights (Central)","street":"22ND","Race":"Black/African American"},{"lat":32.706931,"lon":-117.163125,"Division":"Central","beatName":"511 Barrio Logan (Central)","street":"NATIONAL AVENUE","Race":"Hispanic/Latine(x)"},{"lat":32.723573,"lon":-117.170157,"Division":"Central","beatName":"521 East Village (Central)","street":"Market st","Race":"Hispanic/Latine(x)"},{"lat":32.716873,"lon":-117.168508,"Division":"Central","beatName":"512 Logan Heights (Central)","street":"OCEAN VIEW BLVD","Race":"Hispanic/Latine(x)"},{"lat":32.907091,"lon":-117.097558,"Division":"Northeastern","beatName":"242 Mira Mesa (Northeastern)","street":"BLK MOUNTAIN RD","Race":"Asian"},{"lat":32.710785,"lon":-117.164541,"Division":"Central","beatName":"517 Golden Hill (Central)","street":"25th st","Race":"Hispanic/Latine(x)"},{"lat":32.704914,"lon":-117.16636,"Division":"Central","beatName":"524 Core-Columbia (Central)","street":"w broadway","Race":"White"},{"lat":32.7114,"lon":-117.149897,"Division":"Central","beatName":"514 Sherman Heights (Central)","street":"imperial ave","Race":"Hispanic/Latine(x)"},{"lat":32.705965,"lon":-117.165033,"Division":"Unknown","beatName":"999 Unknown (Unknown)","street":"ACACIA STREET","Race":"Hispanic/Latine(x)"},{"lat":32.696688,"lon":-117.056022,"Division":"Southeastern","beatName":"441 Mountain View (Southeastern)","street":"national avenue","Race":"White"},{"lat":32.696688,"lon":-117.056022,"Division":"Southeastern","beatName":"441 Mountain View (Southeastern)","street":"Ocean View Blvd","Race":"Hispanic/Latine(x)"},{"lat":32.696688,"lon":-117.056022,"Division":"Southeastern","beatName":"441 Mountain View (Southeastern)","street":"Ocean View Blvd","Race":"Hispanic/Latine(x)"},{"lat":32.696688,"lon":-117.056022,"Division":"Southeastern","beatName":"441 Mountain View (Southeastern)","street":"Ocean View Blvd","Race":"Hispanic/Latine(x)"},{"lat":32.696688,"lon":-117.056022,"Division":"Southeastern","beatName":"441 Mountain View (Southeastern)","street":"Ocean View Blvd","Race":"Hispanic/Latine(x)"},{"lat":32.696688,"lon":-117.056022,"Division":"Southeastern","beatName":"441 Mountain View (Southeastern)","street":"Ocean View Blvd","Race":"Hispanic/Latine(x)"},{"lat":32.696688,"lon":-117.056022,"Division":"Southeastern","beatName":"441 Mountain View (Southeastern)","street":"Ocean View Blvd","Race":"Hispanic/Latine(x)"},{"lat":32.696688,"lon":-117.056022,"Division":"Southeastern","beatName":"441 Mountain View (Southeastern)","street":"Ocean View Blvd","Race":"Hispanic/Latine(x)"},{"lat":32.696688,"lon":-117.056022,"Division":"Southeastern","beatName":"441 Mountain View (Southeastern)","street":"Ocean View Blvd","Race":"Hispanic/Latine(x)"},{"lat":32.71049,"lon":-117.155705,"Division":"Central","beatName":"516 Stockton (Central)","street":"32nd Street","Race":"Hispanic/Latine(x)"},{"lat":32.716873,"lon":-117.168508,"Division":"Central","beatName":"512 Logan Heights (Central)","street":"S 31ST STREET","Race":"Hispanic/Latine(x)"},{"lat":32.716873,"lon":-117.168508,"Division":"Central","beatName":"512 Logan Heights (Central)","street":"S 31ST STREET","Race":"Hispanic/Latine(x)"},{"lat":32.716873,"lon":-117.168508,"Division":"Central","beatName":"512 Logan Heights (Central)","street":"S 31ST STREET","Race":"Hispanic/Latine(x)"},{"lat":32.716873,"lon":-117.168508,"Division":"Central","beatName":"512 Logan Heights (Central)","street":"S 31ST STREET","Race":"Hispanic/Latine(x)"},{"lat":32.716873,"lon":-117.168508,"Division":"Central","beatName":"512 Logan Heights (Central)","street":"S 31ST STREET","Race":"Hispanic/Latine(x)"},{"lat":32.716873,"lon":-117.168508,"Division":"Central","beatName":"512 Logan Heights (Central)","street":"S 31ST STREET","Race":"Hispanic/Latine(x)"},{"lat":32.716873,"lon":-117.168508,"Division":"Central","beatName":"512 Logan Heights (Central)","street":"S 31ST STREET","Race":"Hispanic/Latine(x)"},{"lat":32.716873,"lon":-117.168508,"Division":"Central","beatName":"512 Logan Heights (Central)","street":"S 31ST STREET","Race":"Hispanic/Latine(x)"},{"lat":32.716873,"lon":-117.168508,"Division":"Central","beatName":"512 Logan Heights (Central)","street":"imperial ave","Race":"Hispanic/Latine(x)"},{"lat":32.706931,"lon":-117.163125,"Division":"Central","beatName":"511 Barrio Logan (Central)","street":"main street","Race":"Black/African American"},{"lat":32.705965,"lon":-117.165033,"Division":"Unknown","beatName":"999 Unknown (Unknown)","street":"ROOSEVELT","Race":"Black/African American"},{"lat":32.706931,"lon":-117.163125,"Division":"Central","beatName":"511 Barrio Logan (Central)","street":"MAIN STREET","Race":"Hispanic/Latine(x)"},{"lat":32.706931,"lon":-117.163125,"Division":"Central","beatName":"511 Barrio Logan (Central)","street":"MAIN ST","Race":"Hispanic/Latine(x)"},{"lat":32.706931,"lon":-117.163125,"Division":"Central","beatName":"511 Barrio Logan (Central)","street":"DALBERGIA ST","Race":"Black/African American"},{"lat":32.706931,"lon":-117.163125,"Division":"Central","beatName":"511 Barrio Logan (Central)","street":"Thor Street","Race":"White"},{"lat":32.681981,"lon":-117.045914,"Division":"Southeastern","beatName":"433 Encanto (Southeastern)","street":"BROADWAY","Race":"Black/African American"},{"lat":32.706931,"lon":-117.163125,"Division":"Central","beatName":"511 Barrio Logan (Central)","street":"Thor Street","Race":"Black/African American"},{"lat":32.706931,"lon":-117.163125,"Division":"Central","beatName":"511 Barrio Logan (Central)","street":"MAIN ST","Race":"Black/African American"},{"lat":32.706931,"lon":-117.163125,"Division":"Central","beatName":"511 Barrio Logan (Central)","street":"VESTA","Race":"Hispanic/Latine(x)"},{"lat":32.706931,"lon":-117.163125,"Division":"Central","beatName":"511 Barrio Logan (Central)","street":"Dalbergia St","Race":"Hispanic/Latine(x)"},{"lat":32.706931,"lon":-117.163125,"Division":"Central","beatName":"511 Barrio Logan (Central)","street":"Dalbergia","Race":"Hispanic/Latine(x)"},{"lat":32.705965,"lon":-117.165033,"Division":"Unknown","beatName":"999 Unknown (Unknown)","street":"Home ave","Race":"Black/African American"},{"lat":32.783782,"lon":-117.054194,"Division":"Eastern","beatName":"315 Mission Valley East (Eastern)","street":"E C B","Race":"Hispanic/Latine(x)"},{"lat":32.755,"lon":-117.094,"Division":"Mid-City","beatName":"832 Teralta West (Mid-City)","street":"COPELAND","Race":"Asian"},{"lat":32.574204,"lon":-117.021553,"Division":"Southern","beatName":"725 Ocean Crest (Southern)","street":"Riviera Pointe","Race":"Hispanic/Latine(x)"},{"lat":32.710136,"lon":-117.152195,"Division":"Central","beatName":"515 Grant Hill (Central)","street":NaN,"Race":"Hispanic/Latine(x)"},{"lat":32.581097,"lon":-117.011067,"Division":"Southern","beatName":"722 Nestor (Southern)","street":"leon avenue","Race":"Pacific Islander"},{"lat":32.785231,"lon":-117.057632,"Division":"Eastern","beatName":"321 Grantville (Eastern)","street":"fairmount","Race":"Black/African American"},{"lat":32.758863,"lon":-117.093571,"Division":"Mid-City","beatName":"838 Corridor (Mid-City)","street":"Ecb","Race":"Hispanic/Latine(x)"},{"lat":32.758863,"lon":-117.093571,"Division":"Mid-City","beatName":"838 Corridor (Mid-City)","street":"Ecb","Race":"Hispanic/Latine(x)"},{"lat":32.758863,"lon":-117.093571,"Division":"Mid-City","beatName":"838 Corridor (Mid-City)","street":"Ecb","Race":"Hispanic/Latine(x)"},{"lat":32.758863,"lon":-117.093571,"Division":"Mid-City","beatName":"838 Corridor (Mid-City)","street":"Ecb","Race":"Hispanic/Latine(x)"},{"lat":32.758863,"lon":-117.093571,"Division":"Mid-City","beatName":"838 Corridor (Mid-City)","street":"Ecb","Race":"Hispanic/Latine(x)"},{"lat":32.758863,"lon":-117.093571,"Division":"Mid-City","beatName":"838 Corridor (Mid-City)","street":"Ecb","Race":"Hispanic/Latine(x)"},{"lat":32.758863,"lon":-117.093571,"Division":"Mid-City","beatName":"838 Corridor (Mid-City)","street":"Ecb","Race":"Hispanic/Latine(x)"},{"lat":32.758863,"lon":-117.093571,"Division":"Mid-City","beatName":"838 Corridor (Mid-City)","street":"Ecb","Race":"Hispanic/Latine(x)"},{"lat":32.758863,"lon":-117.093571,"Division":"Mid-City","beatName":"838 Corridor (Mid-City)","street":"Ecb","Race":"Hispanic/Latine(x)"},{"lat":32.758863,"lon":-117.093571,"Division":"Mid-City","beatName":"838 Corridor (Mid-City)","street":"Ecb","Race":"Hispanic/Latine(x)"},{"lat":32.758863,"lon":-117.093571,"Division":"Mid-City","beatName":"838 Corridor (Mid-City)","street":"Ecb","Race":"Hispanic/Latine(x)"},{"lat":32.758863,"lon":-117.093571,"Division":"Mid-City","beatName":"838 Corridor (Mid-City)","street":"Ecb","Race":"Hispanic/Latine(x)"},{"lat":32.758863,"lon":-117.093571,"Division":"Mid-City","beatName":"838 Corridor (Mid-City)","street":"Ecb","Race":"Hispanic/Latine(x)"},{"lat":32.758863,"lon":-117.093571,"Division":"Mid-City","beatName":"838 Corridor (Mid-City)","street":"Ecb","Race":"Hispanic/Latine(x)"},{"lat":32.758863,"lon":-117.093571,"Division":"Mid-City","beatName":"838 Corridor (Mid-City)","street":"Ecb","Race":"Hispanic/Latine(x)"},{"lat":32.758863,"lon":-117.093571,"Division":"Mid-City","beatName":"838 Corridor (Mid-City)","street":"Ecb","Race":"Hispanic/Latine(x)"},{"lat":32.758863,"lon":-117.093571,"Division":"Mid-City","beatName":"838 Corridor (Mid-City)","street":"Ecb","Race":"Hispanic/Latine(x)"},{"lat":32.758863,"lon":-117.093571,"Division":"Mid-City","beatName":"838 Corridor (Mid-City)","street":"Ecb","Race":"Hispanic/Latine(x)"},{"lat":32.758863,"lon":-117.093571,"Division":"Mid-City","beatName":"838 Corridor (Mid-City)","street":"Ecb","Race":"Hispanic/Latine(x)"},{"lat":32.758863,"lon":-117.093571,"Division":"Mid-City","beatName":"838 Corridor (Mid-City)","street":"Ecb","Race":"Hispanic/Latine(x)"},{"lat":32.758863,"lon":-117.093571,"Division":"Mid-City","beatName":"838 Corridor (Mid-City)","street":"Ecb","Race":"Hispanic/Latine(x)"},{"lat":32.758863,"lon":-117.093571,"Division":"Mid-City","beatName":"838 Corridor (Mid-City)","street":"Ecb","Race":"Hispanic/Latine(x)"},{"lat":32.758863,"lon":-117.093571,"Division":"Mid-City","beatName":"838 Corridor (Mid-City)","street":"Ecb","Race":"Hispanic/Latine(x)"},{"lat":32.758863,"lon":-117.093571,"Division":"Mid-City","beatName":"838 Corridor (Mid-City)","street":"Ecb","Race":"Hispanic/Latine(x)"},{"lat":32.758863,"lon":-117.093571,"Division":"Mid-City","beatName":"838 Corridor (Mid-City)","street":"Ecb","Race":"Hispanic/Latine(x)"},{"lat":32.758863,"lon":-117.093571,"Division":"Mid-City","beatName":"838 Corridor (Mid-City)","street":"Ecb","Race":"Hispanic/Latine(x)"},{"lat":32.758863,"lon":-117.093571,"Division":"Mid-City","beatName":"838 Corridor (Mid-City)","street":"Ecb","Race":"Hispanic/Latine(x)"},{"lat":32.758863,"lon":-117.093571,"Division":"Mid-City","beatName":"838 Corridor (Mid-City)","street":"Ecb","Race":"Hispanic/Latine(x)"},{"lat":32.758863,"lon":-117.093571,"Division":"Mid-City","beatName":"838 Corridor (Mid-City)","street":"Ecb","Race":"Hispanic/Latine(x)"},{"lat":32.758863,"lon":-117.093571,"Division":"Mid-City","beatName":"838 Corridor (Mid-City)","street":"Ecb","Race":"Hispanic/Latine(x)"},{"lat":32.758863,"lon":-117.093571,"Division":"Mid-City","beatName":"838 Corridor (Mid-City)","street":"Ecb","Race":"Hispanic/Latine(x)"},{"lat":32.758863,"lon":-117.093571,"Division":"Mid-City","beatName":"838 Corridor (Mid-City)","street":"Ecb","Race":"Hispanic/Latine(x)"},{"lat":32.758863,"lon":-117.093571,"Division":"Mid-City","beatName":"838 Corridor (Mid-City)","street":"Ecb","Race":"Hispanic/Latine(x)"},{"lat":32.758863,"lon":-117.093571,"Division":"Mid-City","beatName":"838 Corridor (Mid-City)","street":"Ecb","Race":"Hispanic/Latine(x)"},{"lat":32.758863,"lon":-117.093571,"Division":"Mid-City","beatName":"838 Corridor (Mid-City)","street":"Ecb","Race":"Hispanic/Latine(x)"},{"lat":32.758863,"lon":-117.093571,"Division":"Mid-City","beatName":"838 Corridor (Mid-City)","street":"Ecb","Race":"Hispanic/Latine(x)"},{"lat":32.758863,"lon":-117.093571,"Division":"Mid-City","beatName":"838 Corridor (Mid-City)","street":"Ecb","Race":"Hispanic/Latine(x)"},{"lat":32.758863,"lon":-117.093571,"Division":"Mid-City","beatName":"838 Corridor (Mid-City)","street":"Ecb","Race":"Hispanic/Latine(x)"},{"lat":32.758863,"lon":-117.093571,"Division":"Mid-City","beatName":"838 Corridor (Mid-City)","street":"Ecb","Race":"Hispanic/Latine(x)"},{"lat":32.758863,"lon":-117.093571,"Division":"Mid-City","beatName":"838 Corridor (Mid-City)","street":"Ecb","Race":"Hispanic/Latine(x)"},{"lat":32.758863,"lon":-117.093571,"Division":"Mid-City","beatName":"838 Corridor (Mid-City)","street":"Ecb","Race":"Hispanic/Latine(x)"},{"lat":32.758863,"lon":-117.093571,"Division":"Mid-City","beatName":"838 Corridor (Mid-City)","street":"Ecb","Race":"Hispanic/Latine(x)"},{"lat":32.758863,"lon":-117.093571,"Division":"Mid-City","beatName":"838 Corridor (Mid-City)","street":"Ecb","Race":"Hispanic/Latine(x)"},{"lat":32.758863,"lon":-117.093571,"Division":"Mid-City","beatName":"838 Corridor (Mid-City)","street":"Ecb","Race":"Hispanic/Latine(x)"},{"lat":32.758863,"lon":-117.093571,"Division":"Mid-City","beatName":"838 Corridor (Mid-City)","street":"Ecb","Race":"Hispanic/Latine(x)"},{"lat":32.758863,"lon":-117.093571,"Division":"Mid-City","beatName":"838 Corridor (Mid-City)","street":"Ecb","Race":"Hispanic/Latine(x)"},{"lat":32.758863,"lon":-117.093571,"Division":"Mid-City","beatName":"838 Corridor (Mid-City)","street":"Ecb","Race":"Hispanic/Latine(x)"},{"lat":32.758863,"lon":-117.093571,"Division":"Mid-City","beatName":"838 Corridor (Mid-City)","street":"Ecb","Race":"Hispanic/Latine(x)"},{"lat":32.758863,"lon":-117.093571,"Division":"Mid-City","beatName":"838 Corridor (Mid-City)","street":"Ecb","Race":"Hispanic/Latine(x)"},{"lat":32.758863,"lon":-117.093571,"Division":"Mid-City","beatName":"838 Corridor (Mid-City)","street":"Ecb","Race":"Hispanic/Latine(x)"},{"lat":32.758863,"lon":-117.093571,"Division":"Mid-City","beatName":"838 Corridor (Mid-City)","street":"Ecb","Race":"Hispanic/Latine(x)"},{"lat":32.758863,"lon":-117.093571,"Division":"Mid-City","beatName":"838 Corridor (Mid-City)","street":"Ecb","Race":"Hispanic/Latine(x)"},{"lat":32.758863,"lon":-117.093571,"Division":"Mid-City","beatName":"838 Corridor (Mid-City)","street":"Ecb","Race":"Hispanic/Latine(x)"},{"lat":32.758863,"lon":-117.093571,"Division":"Mid-City","beatName":"838 Corridor (Mid-City)","street":"Ecb","Race":"Hispanic/Latine(x)"},{"lat":32.758863,"lon":-117.093571,"Division":"Mid-City","beatName":"838 Corridor (Mid-City)","street":"Ecb","Race":"Hispanic/Latine(x)"},{"lat":32.758863,"lon":-117.093571,"Division":"Mid-City","beatName":"838 Corridor (Mid-City)","street":"Ecb","Race":"Hispanic/Latine(x)"},{"lat":32.758863,"lon":-117.093571,"Division":"Mid-City","beatName":"838 Corridor (Mid-City)","street":"Ecb","Race":"Hispanic/Latine(x)"},{"lat":32.758863,"lon":-117.093571,"Division":"Mid-City","beatName":"838 Corridor (Mid-City)","street":"Ecb","Race":"Hispanic/Latine(x)"},{"lat":32.758863,"lon":-117.093571,"Division":"Mid-City","beatName":"838 Corridor (Mid-City)","street":"Ecb","Race":"Hispanic/Latine(x)"},{"lat":32.758863,"lon":-117.093571,"Division":"Mid-City","beatName":"838 Corridor (Mid-City)","street":"Ecb","Race":"Hispanic/Latine(x)"},{"lat":32.758863,"lon":-117.093571,"Division":"Mid-City","beatName":"838 Corridor (Mid-City)","street":"Ecb","Race":"Hispanic/Latine(x)"},{"lat":32.758863,"lon":-117.093571,"Division":"Mid-City","beatName":"838 Corridor (Mid-City)","street":"Ecb","Race":"Hispanic/Latine(x)"},{"lat":32.758863,"lon":-117.093571,"Division":"Mid-City","beatName":"838 Corridor (Mid-City)","street":"Ecb","Race":"Hispanic/Latine(x)"},{"lat":32.758863,"lon":-117.093571,"Division":"Mid-City","beatName":"838 Corridor (Mid-City)","street":"Ecb","Race":"Hispanic/Latine(x)"},{"lat":32.758863,"lon":-117.093571,"Division":"Mid-City","beatName":"838 Corridor (Mid-City)","street":"Ecb","Race":"Hispanic/Latine(x)"},{"lat":32.758863,"lon":-117.093571,"Division":"Mid-City","beatName":"838 Corridor (Mid-City)","street":"Ecb","Race":"Hispanic/Latine(x)"},{"lat":32.758863,"lon":-117.093571,"Division":"Mid-City","beatName":"838 Corridor (Mid-City)","street":"Ecb","Race":"Hispanic/Latine(x)"},{"lat":32.758863,"lon":-117.093571,"Division":"Mid-City","beatName":"838 Corridor (Mid-City)","street":"Ecb","Race":"Hispanic/Latine(x)"},{"lat":32.758863,"lon":-117.093571,"Division":"Mid-City","beatName":"838 Corridor (Mid-City)","street":"Ecb","Race":"Hispanic/Latine(x)"},{"lat":32.758863,"lon":-117.093571,"Division":"Mid-City","beatName":"838 Corridor (Mid-City)","street":"Ecb","Race":"Hispanic/Latine(x)"},{"lat":32.758863,"lon":-117.093571,"Division":"Mid-City","beatName":"838 Corridor (Mid-City)","street":"Ecb","Race":"Hispanic/Latine(x)"},{"lat":32.758863,"lon":-117.093571,"Division":"Mid-City","beatName":"838 Corridor (Mid-City)","street":"Ecb","Race":"Hispanic/Latine(x)"},{"lat":32.758863,"lon":-117.093571,"Division":"Mid-City","beatName":"838 Corridor (Mid-City)","street":"Ecb","Race":"Hispanic/Latine(x)"},{"lat":32.758863,"lon":-117.093571,"Division":"Mid-City","beatName":"838 Corridor (Mid-City)","street":"Ecb","Race":"Hispanic/Latine(x)"},{"lat":32.758863,"lon":-117.093571,"Division":"Mid-City","beatName":"838 Corridor (Mid-City)","street":"Ecb","Race":"Hispanic/Latine(x)"},{"lat":32.758863,"lon":-117.093571,"Division":"Mid-City","beatName":"838 Corridor (Mid-City)","street":"Ecb","Race":"Hispanic/Latine(x)"},{"lat":32.758863,"lon":-117.093571,"Division":"Mid-City","beatName":"838 Corridor (Mid-City)","street":"Ecb","Race":"Hispanic/Latine(x)"},{"lat":32.758863,"lon":-117.093571,"Division":"Mid-City","beatName":"838 Corridor (Mid-City)","street":"Ecb","Race":"Hispanic/Latine(x)"},{"lat":32.758863,"lon":-117.093571,"Division":"Mid-City","beatName":"838 Corridor (Mid-City)","street":"Ecb","Race":"Hispanic/Latine(x)"},{"lat":32.758863,"lon":-117.093571,"Division":"Mid-City","beatName":"838 Corridor (Mid-City)","street":"Ecb","Race":"Hispanic/Latine(x)"},{"lat":32.758863,"lon":-117.093571,"Division":"Mid-City","beatName":"838 Corridor (Mid-City)","street":"Ecb","Race":"Hispanic/Latine(x)"},{"lat":32.758863,"lon":-117.093571,"Division":"Mid-City","beatName":"838 Corridor (Mid-City)","street":"Ecb","Race":"Hispanic/Latine(x)"},{"lat":32.758863,"lon":-117.093571,"Division":"Mid-City","beatName":"838 Corridor (Mid-City)","street":"Ecb","Race":"Hispanic/Latine(x)"},{"lat":32.758863,"lon":-117.093571,"Division":"Mid-City","beatName":"838 Corridor (Mid-City)","street":"Ecb","Race":"Hispanic/Latine(x)"},{"lat":32.758863,"lon":-117.093571,"Division":"Mid-City","beatName":"838 Corridor (Mid-City)","street":"Ecb","Race":"Hispanic/Latine(x)"},{"lat":32.758863,"lon":-117.093571,"Division":"Mid-City","beatName":"838 Corridor (Mid-City)","street":"Ecb","Race":"Hispanic/Latine(x)"},{"lat":32.758863,"lon":-117.093571,"Division":"Mid-City","beatName":"838 Corridor (Mid-City)","street":"Ecb","Race":"Hispanic/Latine(x)"},{"lat":32.758863,"lon":-117.093571,"Division":"Mid-City","beatName":"838 Corridor (Mid-City)","street":"Ecb","Race":"Hispanic/Latine(x)"},{"lat":32.758863,"lon":-117.093571,"Division":"Mid-City","beatName":"838 Corridor (Mid-City)","street":"Ecb","Race":"Hispanic/Latine(x)"},{"lat":32.758863,"lon":-117.093571,"Division":"Mid-City","beatName":"838 Corridor (Mid-City)","street":"Ecb","Race":"Hispanic/Latine(x)"},{"lat":32.758863,"lon":-117.093571,"Division":"Mid-City","beatName":"838 Corridor (Mid-City)","street":"Ecb","Race":"Hispanic/Latine(x)"},{"lat":32.758863,"lon":-117.093571,"Division":"Mid-City","beatName":"838 Corridor (Mid-City)","street":"Ecb","Race":"Hispanic/Latine(x)"},{"lat":32.758863,"lon":-117.093571,"Division":"Mid-City","beatName":"838 Corridor (Mid-City)","street":"Ecb","Race":"Hispanic/Latine(x)"},{"lat":32.758863,"lon":-117.093571,"Division":"Mid-City","beatName":"838 Corridor (Mid-City)","street":"Ecb","Race":"Hispanic/Latine(x)"},{"lat":32.758863,"lon":-117.093571,"Division":"Mid-City","beatName":"838 Corridor (Mid-City)","street":"Ecb","Race":"Hispanic/Latine(x)"},{"lat":32.758863,"lon":-117.093571,"Division":"Mid-City","beatName":"838 Corridor (Mid-City)","street":"Ecb","Race":"Hispanic/Latine(x)"},{"lat":32.758863,"lon":-117.093571,"Division":"Mid-City","beatName":"838 Corridor (Mid-City)","street":"Ecb","Race":"Hispanic/Latine(x)"},{"lat":32.758863,"lon":-117.093571,"Division":"Mid-City","beatName":"838 Corridor (Mid-City)","street":"Ecb","Race":"Hispanic/Latine(x)"},{"lat":32.758863,"lon":-117.093571,"Division":"Mid-City","beatName":"838 Corridor (Mid-City)","street":"Ecb","Race":"Hispanic/Latine(x)"},{"lat":32.758863,"lon":-117.093571,"Division":"Mid-City","beatName":"838 Corridor (Mid-City)","street":"Ecb","Race":"Hispanic/Latine(x)"},{"lat":32.758863,"lon":-117.093571,"Division":"Mid-City","beatName":"838 Corridor (Mid-City)","street":"Ecb","Race":"Hispanic/Latine(x)"},{"lat":32.758863,"lon":-117.093571,"Division":"Mid-City","beatName":"838 Corridor (Mid-City)","street":"Ecb","Race":"Hispanic/Latine(x)"},{"lat":32.758863,"lon":-117.093571,"Division":"Mid-City","beatName":"838 Corridor (Mid-City)","street":"Ecb","Race":"Hispanic/Latine(x)"},{"lat":32.758863,"lon":-117.093571,"Division":"Mid-City","beatName":"838 Corridor (Mid-City)","street":"Ecb","Race":"Hispanic/Latine(x)"},{"lat":32.758863,"lon":-117.093571,"Division":"Mid-City","beatName":"838 Corridor (Mid-City)","street":"Ecb","Race":"Hispanic/Latine(x)"},{"lat":32.758863,"lon":-117.093571,"Division":"Mid-City","beatName":"838 Corridor (Mid-City)","street":"Ecb","Race":"Hispanic/Latine(x)"},{"lat":32.758863,"lon":-117.093571,"Division":"Mid-City","beatName":"838 Corridor (Mid-City)","street":"Ecb","Race":"Hispanic/Latine(x)"},{"lat":32.758863,"lon":-117.093571,"Division":"Mid-City","beatName":"838 Corridor (Mid-City)","street":"Ecb","Race":"Hispanic/Latine(x)"},{"lat":32.758863,"lon":-117.093571,"Division":"Mid-City","beatName":"838 Corridor (Mid-City)","street":"Ecb","Race":"Hispanic/Latine(x)"},{"lat":32.758863,"lon":-117.093571,"Division":"Mid-City","beatName":"838 Corridor (Mid-City)","street":"Ecb","Race":"Hispanic/Latine(x)"},{"lat":32.758863,"lon":-117.093571,"Division":"Mid-City","beatName":"838 Corridor (Mid-City)","street":"Ecb","Race":"Hispanic/Latine(x)"},{"lat":32.758863,"lon":-117.093571,"Division":"Mid-City","beatName":"838 Corridor (Mid-City)","street":"Ecb","Race":"Hispanic/Latine(x)"},{"lat":32.758863,"lon":-117.093571,"Division":"Mid-City","beatName":"838 Corridor (Mid-City)","street":"Ecb","Race":"Hispanic/Latine(x)"},{"lat":32.758863,"lon":-117.093571,"Division":"Mid-City","beatName":"838 Corridor (Mid-City)","street":"Ecb","Race":"Hispanic/Latine(x)"},{"lat":32.758863,"lon":-117.093571,"Division":"Mid-City","beatName":"838 Corridor (Mid-City)","street":"Ecb","Race":"Hispanic/Latine(x)"},{"lat":32.758863,"lon":-117.093571,"Division":"Mid-City","beatName":"838 Corridor (Mid-City)","street":"Ecb","Race":"Hispanic/Latine(x)"},{"lat":32.758863,"lon":-117.093571,"Division":"Mid-City","beatName":"838 Corridor (Mid-City)","street":"Ecb","Race":"Hispanic/Latine(x)"},{"lat":32.758863,"lon":-117.093571,"Division":"Mid-City","beatName":"838 Corridor (Mid-City)","street":"Ecb","Race":"Hispanic/Latine(x)"},{"lat":32.758863,"lon":-117.093571,"Division":"Mid-City","beatName":"838 Corridor (Mid-City)","street":"Ecb","Race":"Hispanic/Latine(x)"},{"lat":32.758863,"lon":-117.093571,"Division":"Mid-City","beatName":"838 Corridor (Mid-City)","street":"Ecb","Race":"Hispanic/Latine(x)"},{"lat":32.758863,"lon":-117.093571,"Division":"Mid-City","beatName":"838 Corridor (Mid-City)","street":"Ecb","Race":"Hispanic/Latine(x)"},{"lat":32.758863,"lon":-117.093571,"Division":"Mid-City","beatName":"838 Corridor (Mid-City)","street":"Ecb","Race":"Hispanic/Latine(x)"},{"lat":32.758863,"lon":-117.093571,"Division":"Mid-City","beatName":"838 Corridor (Mid-City)","street":"Ecb","Race":"Hispanic/Latine(x)"},{"lat":32.758863,"lon":-117.093571,"Division":"Mid-City","beatName":"838 Corridor (Mid-City)","street":"Ecb","Race":"Hispanic/Latine(x)"},{"lat":32.758863,"lon":-117.093571,"Division":"Mid-City","beatName":"838 Corridor (Mid-City)","street":"Ecb","Race":"Hispanic/Latine(x)"},{"lat":32.758863,"lon":-117.093571,"Division":"Mid-City","beatName":"838 Corridor (Mid-City)","street":"Ecb","Race":"Hispanic/Latine(x)"},{"lat":32.758863,"lon":-117.093571,"Division":"Mid-City","beatName":"838 Corridor (Mid-City)","street":"Ecb","Race":"Hispanic/Latine(x)"},{"lat":32.758863,"lon":-117.093571,"Division":"Mid-City","beatName":"838 Corridor (Mid-City)","street":"Ecb","Race":"Hispanic/Latine(x)"},{"lat":32.758863,"lon":-117.093571,"Division":"Mid-City","beatName":"838 Corridor (Mid-City)","street":"Ecb","Race":"Hispanic/Latine(x)"},{"lat":32.758863,"lon":-117.093571,"Division":"Mid-City","beatName":"838 Corridor (Mid-City)","street":"Ecb","Race":"Hispanic/Latine(x)"},{"lat":32.758863,"lon":-117.093571,"Division":"Mid-City","beatName":"838 Corridor (Mid-City)","street":"Ecb","Race":"Hispanic/Latine(x)"},{"lat":32.758863,"lon":-117.093571,"Division":"Mid-City","beatName":"838 Corridor (Mid-City)","street":"Ecb","Race":"Hispanic/Latine(x)"},{"lat":32.758863,"lon":-117.093571,"Division":"Mid-City","beatName":"838 Corridor (Mid-City)","street":"Ecb","Race":"Hispanic/Latine(x)"},{"lat":32.758863,"lon":-117.093571,"Division":"Mid-City","beatName":"838 Corridor (Mid-City)","street":"Ecb","Race":"Hispanic/Latine(x)"},{"lat":32.758863,"lon":-117.093571,"Division":"Mid-City","beatName":"838 Corridor (Mid-City)","street":"Ecb","Race":"Hispanic/Latine(x)"},{"lat":32.758863,"lon":-117.093571,"Division":"Mid-City","beatName":"838 Corridor (Mid-City)","street":"Ecb","Race":"Hispanic/Latine(x)"},{"lat":32.758863,"lon":-117.093571,"Division":"Mid-City","beatName":"838 Corridor (Mid-City)","street":"Ecb","Race":"Hispanic/Latine(x)"},{"lat":32.758863,"lon":-117.093571,"Division":"Mid-City","beatName":"838 Corridor (Mid-City)","street":"Ecb","Race":"Hispanic/Latine(x)"},{"lat":32.758863,"lon":-117.093571,"Division":"Mid-City","beatName":"838 Corridor (Mid-City)","street":"Ecb","Race":"Hispanic/Latine(x)"},{"lat":32.758863,"lon":-117.093571,"Division":"Mid-City","beatName":"838 Corridor (Mid-City)","street":"Ecb","Race":"Hispanic/Latine(x)"},{"lat":32.758863,"lon":-117.093571,"Division":"Mid-City","beatName":"838 Corridor (Mid-City)","street":"Ecb","Race":"Hispanic/Latine(x)"},{"lat":32.758863,"lon":-117.093571,"Division":"Mid-City","beatName":"838 Corridor (Mid-City)","street":"Ecb","Race":"Hispanic/Latine(x)"},{"lat":32.758863,"lon":-117.093571,"Division":"Mid-City","beatName":"838 Corridor (Mid-City)","street":"Ecb","Race":"Hispanic/Latine(x)"},{"lat":32.758863,"lon":-117.093571,"Division":"Mid-City","beatName":"838 Corridor (Mid-City)","street":"Ecb","Race":"Hispanic/Latine(x)"},{"lat":32.758863,"lon":-117.093571,"Division":"Mid-City","beatName":"838 Corridor (Mid-City)","street":"Ecb","Race":"Hispanic/Latine(x)"},{"lat":32.758863,"lon":-117.093571,"Division":"Mid-City","beatName":"838 Corridor (Mid-City)","street":"Ecb","Race":"Hispanic/Latine(x)"},{"lat":32.758863,"lon":-117.093571,"Division":"Mid-City","beatName":"838 Corridor (Mid-City)","street":"Ecb","Race":"Hispanic/Latine(x)"},{"lat":32.758863,"lon":-117.093571,"Division":"Mid-City","beatName":"838 Corridor (Mid-City)","street":"Ecb","Race":"Hispanic/Latine(x)"},{"lat":32.758863,"lon":-117.093571,"Division":"Mid-City","beatName":"838 Corridor (Mid-City)","street":"Ecb","Race":"Hispanic/Latine(x)"},{"lat":32.758863,"lon":-117.093571,"Division":"Mid-City","beatName":"838 Corridor (Mid-City)","street":"Ecb","Race":"Hispanic/Latine(x)"},{"lat":32.758863,"lon":-117.093571,"Division":"Mid-City","beatName":"838 Corridor (Mid-City)","street":"Ecb","Race":"Hispanic/Latine(x)"},{"lat":32.758863,"lon":-117.093571,"Division":"Mid-City","beatName":"838 Corridor (Mid-City)","street":"Ecb","Race":"Hispanic/Latine(x)"},{"lat":32.758863,"lon":-117.093571,"Division":"Mid-City","beatName":"838 Corridor (Mid-City)","street":"Ecb","Race":"Hispanic/Latine(x)"},{"lat":32.758863,"lon":-117.093571,"Division":"Mid-City","beatName":"838 Corridor (Mid-City)","street":"Ecb","Race":"Hispanic/Latine(x)"},{"lat":32.758863,"lon":-117.093571,"Division":"Mid-City","beatName":"838 Corridor (Mid-City)","street":"Ecb","Race":"Hispanic/Latine(x)"},{"lat":32.758863,"lon":-117.093571,"Division":"Mid-City","beatName":"838 Corridor (Mid-City)","street":"Ecb","Race":"Hispanic/Latine(x)"},{"lat":32.758863,"lon":-117.093571,"Division":"Mid-City","beatName":"838 Corridor (Mid-City)","street":"Ecb","Race":"Hispanic/Latine(x)"},{"lat":32.758863,"lon":-117.093571,"Division":"Mid-City","beatName":"838 Corridor (Mid-City)","street":"Ecb","Race":"Hispanic/Latine(x)"},{"lat":32.758863,"lon":-117.093571,"Division":"Mid-City","beatName":"838 Corridor (Mid-City)","street":"Ecb","Race":"Hispanic/Latine(x)"},{"lat":32.758863,"lon":-117.093571,"Division":"Mid-City","beatName":"838 Corridor (Mid-City)","street":"Ecb","Race":"Hispanic/Latine(x)"},{"lat":32.758863,"lon":-117.093571,"Division":"Mid-City","beatName":"838 Corridor (Mid-City)","street":"Ecb","Race":"Hispanic/Latine(x)"},{"lat":32.758863,"lon":-117.093571,"Division":"Mid-City","beatName":"838 Corridor (Mid-City)","street":"Ecb","Race":"Hispanic/Latine(x)"},{"lat":32.758863,"lon":-117.093571,"Division":"Mid-City","beatName":"838 Corridor (Mid-City)","street":"Ecb","Race":"Hispanic/Latine(x)"},{"lat":32.758863,"lon":-117.093571,"Division":"Mid-City","beatName":"838 Corridor (Mid-City)","street":"Ecb","Race":"Hispanic/Latine(x)"},{"lat":32.758863,"lon":-117.093571,"Division":"Mid-City","beatName":"838 Corridor (Mid-City)","street":"Ecb","Race":"Hispanic/Latine(x)"},{"lat":32.758863,"lon":-117.093571,"Division":"Mid-City","beatName":"838 Corridor (Mid-City)","street":"Ecb","Race":"Hispanic/Latine(x)"},{"lat":32.758863,"lon":-117.093571,"Division":"Mid-City","beatName":"838 Corridor (Mid-City)","street":"Ecb","Race":"Hispanic/Latine(x)"},{"lat":32.758863,"lon":-117.093571,"Division":"Mid-City","beatName":"838 Corridor (Mid-City)","street":"Ecb","Race":"Hispanic/Latine(x)"},{"lat":32.758863,"lon":-117.093571,"Division":"Mid-City","beatName":"838 Corridor (Mid-City)","street":"Ecb","Race":"Hispanic/Latine(x)"},{"lat":32.758863,"lon":-117.093571,"Division":"Mid-City","beatName":"838 Corridor (Mid-City)","street":"Ecb","Race":"Hispanic/Latine(x)"},{"lat":32.758863,"lon":-117.093571,"Division":"Mid-City","beatName":"838 Corridor (Mid-City)","street":"Ecb","Race":"Hispanic/Latine(x)"},{"lat":32.758863,"lon":-117.093571,"Division":"Mid-City","beatName":"838 Corridor (Mid-City)","street":"Ecb","Race":"Hispanic/Latine(x)"},{"lat":32.758863,"lon":-117.093571,"Division":"Mid-City","beatName":"838 Corridor (Mid-City)","street":"Ecb","Race":"Hispanic/Latine(x)"},{"lat":32.758863,"lon":-117.093571,"Division":"Mid-City","beatName":"838 Corridor (Mid-City)","street":"Ecb","Race":"Hispanic/Latine(x)"},{"lat":32.758863,"lon":-117.093571,"Division":"Mid-City","beatName":"838 Corridor (Mid-City)","street":"Ecb","Race":"Hispanic/Latine(x)"},{"lat":32.758863,"lon":-117.093571,"Division":"Mid-City","beatName":"838 Corridor (Mid-City)","street":"Ecb","Race":"Hispanic/Latine(x)"},{"lat":32.758863,"lon":-117.093571,"Division":"Mid-City","beatName":"838 Corridor (Mid-City)","street":"Ecb","Race":"Hispanic/Latine(x)"},{"lat":32.758863,"lon":-117.093571,"Division":"Mid-City","beatName":"838 Corridor (Mid-City)","street":"Ecb","Race":"Hispanic/Latine(x)"},{"lat":32.758863,"lon":-117.093571,"Division":"Mid-City","beatName":"838 Corridor (Mid-City)","street":"Ecb","Race":"Hispanic/Latine(x)"},{"lat":32.758863,"lon":-117.093571,"Division":"Mid-City","beatName":"838 Corridor (Mid-City)","street":"Ecb","Race":"Hispanic/Latine(x)"},{"lat":32.576364,"lon":-117.01344,"Division":"Southern","beatName":"721 Egger Highlands (Southern)","street":"OUTER","Race":"Hispanic/Latine(x)"},{"lat":32.585395,"lon":-117.01479,"Division":"Southern","beatName":"723 Otay Mesa West (Southern)","street":"27TH STREET.","Race":"Hispanic/Latine(x)"},{"lat":32.585395,"lon":-117.01479,"Division":"Southern","beatName":"723 Otay Mesa West (Southern)","street":"DEL SOL BLVD","Race":"Hispanic/Latine(x)"},{"lat":32.753447,"lon":-117.094204,"Division":"Mid-City","beatName":"826 Colina Del Sol (Mid-City)","street":"EL CAJON BLVD","Race":"Middle Eastern or South Asian"},{"lat":32.697188,"lon":-117.055416,"Division":"Southeastern","beatName":"437 Bay Terraces (Southeastern)","street":NaN,"Race":"Middle Eastern or South Asian"},{"lat":32.724036,"lon":-117.152468,"Division":"Central","beatName":"523 Gaslamp (Central)","street":"06th ave","Race":"Hispanic/Latine(x)"},{"lat":32.706931,"lon":-117.163125,"Division":"Central","beatName":"511 Barrio Logan (Central)","street":"national ave","Race":"Hispanic/Latine(x)"},{"lat":32.706931,"lon":-117.163125,"Division":"Central","beatName":"511 Barrio Logan (Central)","street":"national ave","Race":"Hispanic/Latine(x)"},{"lat":32.706931,"lon":-117.163125,"Division":"Central","beatName":"511 Barrio Logan (Central)","street":"national ave","Race":"Hispanic/Latine(x)"},{"lat":32.706931,"lon":-117.163125,"Division":"Central","beatName":"511 Barrio Logan (Central)","street":"national ave","Race":"Hispanic/Latine(x)"},{"lat":32.706931,"lon":-117.163125,"Division":"Central","beatName":"511 Barrio Logan (Central)","street":"national ave","Race":"Hispanic/Latine(x)"},{"lat":32.706931,"lon":-117.163125,"Division":"Central","beatName":"511 Barrio Logan (Central)","street":"national ave","Race":"Hispanic/Latine(x)"},{"lat":32.706931,"lon":-117.163125,"Division":"Central","beatName":"511 Barrio Logan (Central)","street":"national ave","Race":"Hispanic/Latine(x)"},{"lat":32.706931,"lon":-117.163125,"Division":"Central","beatName":"511 Barrio Logan (Central)","street":"national ave","Race":"Hispanic/Latine(x)"},{"lat":32.706931,"lon":-117.163125,"Division":"Central","beatName":"511 Barrio Logan (Central)","street":"MAIN ST","Race":"Hispanic/Latine(x)"},{"lat":32.706931,"lon":-117.163125,"Division":"Central","beatName":"511 Barrio Logan (Central)","street":"MAIN ST","Race":"Hispanic/Latine(x)"},{"lat":32.705965,"lon":-117.165033,"Division":"Unknown","beatName":"999 Unknown (Unknown)","street":NaN,"Race":"Hispanic/Latine(x)"},{"lat":32.784605,"lon":-117.05521,"Division":"Eastern","beatName":"311 Serra Mesa (Eastern)","street":"AERO DR","Race":"White"},{"lat":32.692536,"lon":-117.055438,"Division":"Southeastern","beatName":"447 Ridgeview/Webster (Southeastern)","street":NaN,"Race":"Hispanic/Latine(x)"},{"lat":32.755523,"lon":-117.105977,"Division":"Mid-City","beatName":"827 Chollas Creek (Mid-City)","street":"50TH ST","Race":"Black/African American"},{"lat":32.705965,"lon":-117.165033,"Division":"Unknown","beatName":"999 Unknown (Unknown)","street":"W mission","Race":"Hispanic/Latine(x)"},{"lat":32.705965,"lon":-117.165033,"Division":"Unknown","beatName":"999 Unknown (Unknown)","street":"Ingraham","Race":"Hispanic/Latine(x)"},{"lat":32.705965,"lon":-117.165033,"Division":"Unknown","beatName":"999 Unknown (Unknown)","street":"Garnet","Race":"White"},{"lat":32.753447,"lon":-117.094204,"Division":"Mid-City","beatName":"826 Colina Del Sol (Mid-City)","street":"estrella avenue","Race":"Black/African American"},{"lat":32.758517,"lon":-117.108285,"Division":"Mid-City","beatName":"831 Teralta East (Mid-City)","street":"Fairmont Ave","Race":"Hispanic/Latine(x)"},{"lat":32.71049,"lon":-117.155705,"Division":"Central","beatName":"516 Stockton (Central)","street":"Island Ave.","Race":"Hispanic/Latine(x)"},{"lat":32.706931,"lon":-117.163125,"Division":"Central","beatName":"511 Barrio Logan (Central)","street":"main street","Race":"Hispanic/Latine(x)"}]