[{"lat":32.782998,"lon":-117.047312,"Division":"Eastern","beatName":"313 Kearney Mesa (Eastern)","street":"clairemont mesa blvd","Race":"Hispanic/Latine(x)"},{"lat":32.695909,"lon":-117.048958,"Division":"Southeastern","beatName":"446 Lincoln Park (Southeastern)","street":"Federal BLVD","Race":"White"},{"lat":32.69055,"lon":-117.039514,"Division":"Southeastern","beatName":"444 Mt. Hope (Southeastern)","street":"market st","Race":"Hispanic/Latine(x)"},{"lat":32.696138,"lon":-117.056582,"Division":"Southeastern","beatName":"432 Valencia Park (Southeastern)","street":"Paradise Valley RD","Race":"White"},{"lat":32.576364,"lon":-117.01344,"Division":"Southern","beatName":"721 Egger Highlands (Southern)","street":"palm ave","Race":"Hispanic/Latine(x)"},{"lat":32.697188,"lon":-117.055416,"Division":"Southeastern","beatName":"437 Bay Terraces (Southeastern)","street":"S MEADOWBROOK DR","Race":"Hispanic/Latine(x)"},{"lat":32.683312,"lon":-117.043978,"Division":"Southeastern","beatName":"443 Shelltown (Southeastern)","street":"ACACIA","Race":"Hispanic/Latine(x)"},{"lat":32.692536,"lon":-117.055438,"Division":"Southeastern","beatName":"447 Ridgeview/Webster (Southeastern)","street":NaN,"Race":"Black/African American"},{"lat":32.696138,"lon":-117.056582,"Division":"Southeastern","beatName":"432 Valencia Park (Southeastern)","street":"trinidad","Race":"Black/African American"},{"lat":32.784605,"lon":-117.05521,"Division":"Eastern","beatName":"311 Serra Mesa (Eastern)","street":NaN,"Race":"Asian"},{"lat":32.785231,"lon":-117.057632,"Division":"Eastern","beatName":"321 Grantville (Eastern)","street":NaN,"Race":"Hispanic/Latine(x)"},{"lat":32.785231,"lon":-117.057632,"Division":"Eastern","beatName":"321 Grantville (Eastern)","street":NaN,"Race":"Black/African American"},{"lat":32.738447,"lon":-117.235796,"Division":"Western","beatName":"611 Midway District (Western)","street":"SPORTS ARENA","Race":"White"},{"lat":32.738447,"lon":-117.235796,"Division":"Western","beatName":"611 Midway District (Western)","street":"ROSECRANS ST","Race":"White"},{"lat":32.680674,"lon":-117.042448,"Division":"Southeastern","beatName":"436 Skyline (Southeastern)","street":"S Meadowbrook Dr","Race":"Hispanic/Latine(x)"},{"lat":32.782998,"lon":-117.047312,"Division":"Eastern","beatName":"313 Kearney Mesa (Eastern)","street":"murphy canyon","Race":"Hispanic/Latine(x)"},{"lat":32.783782,"lon":-117.054194,"Division":"Eastern","beatName":"315 Mission Valley East (Eastern)","street":"mercury st.","Race":"Hispanic/Latine(x)"},{"lat":32.782998,"lon":-117.047312,"Division":"Eastern","beatName":"313 Kearney Mesa (Eastern)","street":"armor dr","Race":"Middle Eastern or South Asian"},{"lat":32.784605,"lon":-117.05521,"Division":"Eastern","beatName":"311 Serra Mesa (Eastern)","street":"aero dr","Race":"Asian"},{"lat":32.796319,"lon":-117.058386,"Division":"Eastern","beatName":"324 Lake Murray (Eastern)","street":"Bobhird","Race":"Middle Eastern or South Asian"},{"lat":32.692536,"lon":-117.055438,"Division":"Southeastern","beatName":"447 Ridgeview/Webster (Southeastern)","street":"MCHUGH","Race":"Black/African American"},{"lat":32.692536,"lon":-117.055438,"Division":"Southeastern","beatName":"447 Ridgeview/Webster (Southeastern)","street":"Home Ave","Race":"Black/African American"},{"lat":32.571614,"lon":-117.026319,"Division":"Southern","beatName":"713 Otay Mesa (Southern)","street":"otay mesa road","Race":"Hispanic/Latine(x)"},{"lat":32.585395,"lon":-117.01479,"Division":"Southern","beatName":"723 Otay Mesa West (Southern)","street":"camino quixote","Race":"Hispanic/Latine(x)"},{"lat":32.695909,"lon":-117.048958,"Division":"Southeastern","beatName":"446 Lincoln Park (Southeastern)","street":"JARRET COURT","Race":"Hispanic/Latine(x)"},{"lat":32.782998,"lon":-117.047312,"Division":"Eastern","beatName":"313 Kearney Mesa (Eastern)","street":"convoy st,.","Race":"White"},{"lat":32.800041,"lon":-117.04693,"Division":"Eastern","beatName":"326 College West (Eastern)","street":"lindo paseo","Race":"Hispanic/Latine(x)"},{"lat":32.683312,"lon":-117.043978,"Division":"Southeastern","beatName":"443 Shelltown (Southeastern)","street":NaN,"Race":"Pacific Islander"},{"lat":32.785231,"lon":-117.057632,"Division":"Eastern","beatName":"321 Grantville (Eastern)","street":"RAINIER AVE","Race":"Asian"},{"lat":32.578447,"lon":-117.014204,"Division":"Southern","beatName":"712 San Ysidro (Southern)","street":"E SAN YSIDRO BL","Race":"Hispanic/Latine(x)"},{"lat":32.838465,"lon":-117.233308,"Division":"Northern","beatName":"124 La Jolla (Northern)","street":"ALTA LA JOLLA DR","Race":"Hispanic/Latine(x)"},{"lat":32.758288,"lon":-117.093259,"Division":"Mid-City","beatName":"822 El Cerrito (Mid-City)","street":NaN,"Race":"Hispanic/Latine(x)"},{"lat":32.758288,"lon":-117.093259,"Division":"Mid-City","beatName":"822 El Cerrito (Mid-City)","street":NaN,"Race":"Hispanic/Latine(x)"},{"lat":32.758288,"lon":-117.093259,"Division":"Mid-City","beatName":"822 El Cerrito (Mid-City)","street":NaN,"Race":"Hispanic/Latine(x)"},{"lat":32.758288,"lon":-117.093259,"Division":"Mid-City","beatName":"822 El Cerrito (Mid-City)","street":NaN,"Race":"Hispanic/Latine(x)"},{"lat":32.758288,"lon":-117.093259,"Division":"Mid-City","beatName":"822 El Cerrito (Mid-City)","street":NaN,"Race":"Hispanic/Latine(x)"},{"lat":32.758288,"lon":-117.093259,"Division":"Mid-City","beatName":"822 El Cerrito (Mid-City)","street":NaN,"Race":"Hispanic/Latine(x)"},{"lat":32.758288,"lon":-117.093259,"Division":"Mid-City","beatName":"822 El Cerrito (Mid-City)","street":NaN,"Race":"Hispanic/Latine(x)"},{"lat":32.758288,"lon":-117.093259,"Division":"Mid-City","beatName":"822 El Cerrito (Mid-City)","street":NaN,"Race":"Hispanic/Latine(x)"},{"lat":32.71049,"lon":-117.155705,"Division":"Central","beatName":"516 Stockton (Central)","street":"F street","Race":"Black/African American"},{"lat":32.578447,"lon":-117.014204,"Division":"Southern","beatName":"712 San Ysidro (Southern)","street":NaN,"Race":"Hispanic/Latine(x)"},{"lat":32.578447,"lon":-117.014204,"Division":"Southern","beatName":"712 San Ysidro (Southern)","street":"Beyer Blvd","Race":"White"},{"lat":32.696688,"lon":-117.056022,"Division":"Southeastern","beatName":"441 Mountain View (Southeastern)","street":"logan","Race":"Hispanic/Latine(x)"},{"lat":32.706931,"lon":-117.163125,"Division":"Central","beatName":"511 Barrio Logan (Central)","street":NaN,"Race":"Black/African American"},{"lat":32.758517,"lon":-117.108285,"Division":"Mid-City","beatName":"831 Teralta East (Mid-City)","street":"van dyke","Race":"Hispanic/Latine(x)"},{"lat":32.953517,"lon":-117.248285,"Division":"Northwestern","beatName":"934 Carmel Valley (Northwestern)","street":NaN,"Race":"White"},{"lat":32.755,"lon":-117.094,"Division":"Mid-City","beatName":"832 Teralta West (Mid-City)","street":"Fairmount Ave","Race":"Hispanic/Latine(x)"},{"lat":32.706931,"lon":-117.163125,"Division":"Central","beatName":"511 Barrio Logan (Central)","street":"vesta st","Race":"Hispanic/Latine(x)"},{"lat":32.753827,"lon":-117.092592,"Division":"Mid-City","beatName":"834 Castle (Mid-City)","street":"central ave","Race":"Hispanic/Latine(x)"},{"lat":32.705965,"lon":-117.165033,"Division":"Unknown","beatName":"999 Unknown (Unknown)","street":"Friars Road","Race":"Hispanic/Latine(x)"},{"lat":32.696688,"lon":-117.056022,"Division":"Southeastern","beatName":"441 Mountain View (Southeastern)","street":"national","Race":"Hispanic/Latine(x)"},{"lat":32.69856,"lon":-117.047219,"Division":"Southeastern","beatName":"451 Oak Park (Southeastern)","street":"bayview heights","Race":"Black/African American"},{"lat":32.683312,"lon":-117.043978,"Division":"Southeastern","beatName":"443 Shelltown (Southeastern)","street":"Dalbergia st","Race":"Hispanic/Latine(x)"},{"lat":32.681981,"lon":-117.045914,"Division":"Southeastern","beatName":"438 Paradise Hills (Southeastern)","street":"Paradise valley road","Race":"Asian"},{"lat":32.700495,"lon":-117.055818,"Division":"Southeastern","beatName":"442 Southcrest (Southeastern)","street":"S 35th st","Race":"Hispanic/Latine(x)"},{"lat":32.696688,"lon":-117.056022,"Division":"Southeastern","beatName":"441 Mountain View (Southeastern)","street":"ada street","Race":"Hispanic/Latine(x)"},{"lat":32.758517,"lon":-117.108285,"Division":"Mid-City","beatName":"831 Teralta East (Mid-City)","street":"ORANGE AVE","Race":"Hispanic/Latine(x)"},{"lat":32.844362,"lon":-117.232052,"Division":"Northern","beatName":"113 Bay Ho (Northern)","street":"Dolivia","Race":"Hispanic/Latine(x)"},{"lat":32.696688,"lon":-117.056022,"Division":"Southeastern","beatName":"441 Mountain View (Southeastern)","street":"Imperial Ave","Race":"Asian"},{"lat":32.695909,"lon":-117.048958,"Division":"Southeastern","beatName":"446 Lincoln Park (Southeastern)","street":"Imperial Ave","Race":"Black/African American"},{"lat":32.692536,"lon":-117.055438,"Division":"Southeastern","beatName":"447 Ridgeview/Webster (Southeastern)","street":"Fairmont ave","Race":"Black/African American"},{"lat":32.69055,"lon":-117.039514,"Division":"Southeastern","beatName":"444 Mt. Hope (Southeastern)","street":"Island Ave","Race":"Hispanic/Latine(x)"},{"lat":32.747161,"lon":-117.222321,"Division":"Western","beatName":"627 Hillcrest (Western)","street":"6TH AVE","Race":"White"},{"lat":32.705965,"lon":-117.165033,"Division":"Unknown","beatName":"999 Unknown (Unknown)","street":NaN,"Race":"Asian"},{"lat":32.858769,"lon":-117.227975,"Division":"Northern","beatName":"122 Pacific Beach (Northern)","street":NaN,"Race":"Hispanic/Latine(x)"},{"lat":32.571614,"lon":-117.026319,"Division":"Southern","beatName":"713 Otay Mesa (Southern)","street":"Caliente Ave","Race":"Hispanic/Latine(x)"},{"lat":32.581097,"lon":-117.011067,"Division":"Southern","beatName":"722 Nestor (Southern)","street":"Leon","Race":"Hispanic/Latine(x)"},{"lat":32.723252,"lon":-117.151774,"Division":"Central","beatName":"525 Horton Plaza (Central)","street":"First","Race":"Middle Eastern or South Asian"},{"lat":32.578447,"lon":-117.014204,"Division":"Southern","beatName":"712 San Ysidro (Southern)","street":NaN,"Race":"Hispanic/Latine(x)"},{"lat":32.763988,"lon":-117.099529,"Division":"Mid-City","beatName":"813 North Park (Mid-City)","street":"howard","Race":"White"},{"lat":32.953517,"lon":-117.248285,"Division":"Northwestern","beatName":"934 Carmel Valley (Northwestern)","street":"HIGH BLUFF DR","Race":"Asian"},{"lat":32.953517,"lon":-117.248285,"Division":"Northwestern","beatName":"934 Carmel Valley (Northwestern)","street":"CARMEL CAYON RD","Race":"White"},{"lat":32.705965,"lon":-117.165033,"Division":"Unknown","beatName":"999 Unknown (Unknown)","street":"Clairemont Mesa Blvd","Race":"White"},{"lat":32.578447,"lon":-117.014204,"Division":"Southern","beatName":"712 San Ysidro (Southern)","street":"W San Ysidro Blvd","Race":"Hispanic/Latine(x)"},{"lat":32.782998,"lon":-117.047312,"Division":"Eastern","beatName":"313 Kearney Mesa (Eastern)","street":NaN,"Race":"Hispanic/Latine(x)"},{"lat":32.71049,"lon":-117.155705,"Division":"Central","beatName":"516 Stockton (Central)","street":"imperoal","Race":"Hispanic/Latine(x)"},{"lat":32.71049,"lon":-117.155705,"Division":"Central","beatName":"516 Stockton (Central)","street":"imperoal","Race":"Hispanic/Latine(x)"},{"lat":32.71049,"lon":-117.155705,"Division":"Central","beatName":"516 Stockton (Central)","street":"imperoal","Race":"Hispanic/Latine(x)"},{"lat":32.71049,"lon":-117.155705,"Division":"Central","beatName":"516 Stockton (Central)","street":"imperoal","Race":"Hispanic/Latine(x)"},{"lat":32.71049,"lon":-117.155705,"Division":"Central","beatName":"516 Stockton (Central)","street":"imperoal","Race":"Hispanic/Latine(x)"},{"lat":32.71049,"lon":-117.155705,"Division":"Central","beatName":"516 Stockton (Central)","street":"imperoal","Race":"Hispanic/Latine(x)"},{"lat":32.71049,"lon":-117.155705,"Division":"Central","beatName":"516 Stockton (Central)","street":"imperoal","Race":"Hispanic/Latine(x)"},{"lat":32.71049,"lon":-117.155705,"Division":"Central","beatName":"516 Stockton (Central)","street":"imperoal","Race":"Hispanic/Latine(x)"},{"lat":32.69055,"lon":-117.039514,"Division":"Southeastern","beatName":"444 Mt. Hope (Southeastern)","street":"market","Race":"Hispanic/Latine(x)"},{"lat":32.800041,"lon":-117.04693,"Division":"Eastern","beatName":"326 College West (Eastern)","street":"campanile dr","Race":"Black/African American"},{"lat":32.956741,"lon":-117.243288,"Division":"Northwestern","beatName":"933 Del Mar Heights (Northwestern)","street":NaN,"Race":"Hispanic/Latine(x)"},{"lat":32.685119,"lon":-117.060963,"Division":"Southeastern","beatName":"452 O'Farrell (Southeastern)","street":"timothy winters","Race":"Hispanic/Latine(x)"},{"lat":32.747518,"lon":-117.100523,"Division":"Mid-City","beatName":"821 Rolando (Mid-City)","street":"ecb","Race":"Black/African American"},{"lat":32.747518,"lon":-117.100523,"Division":"Mid-City","beatName":"821 Rolando (Mid-City)","street":"ecb","Race":"Black/African American"},{"lat":32.747518,"lon":-117.100523,"Division":"Mid-City","beatName":"821 Rolando (Mid-City)","street":"ecb","Race":"Black/African American"},{"lat":32.747518,"lon":-117.100523,"Division":"Mid-City","beatName":"821 Rolando (Mid-City)","street":"ecb","Race":"Black/African American"},{"lat":32.747518,"lon":-117.100523,"Division":"Mid-City","beatName":"821 Rolando (Mid-City)","street":"ecb","Race":"Black/African American"},{"lat":32.747518,"lon":-117.100523,"Division":"Mid-City","beatName":"821 Rolando (Mid-City)","street":"ecb","Race":"Black/African American"},{"lat":32.747518,"lon":-117.100523,"Division":"Mid-City","beatName":"821 Rolando (Mid-City)","street":"ecb","Race":"Black/African American"},{"lat":32.747518,"lon":-117.100523,"Division":"Mid-City","beatName":"821 Rolando (Mid-City)","street":"ecb","Race":"Black/African American"},{"lat":32.723573,"lon":-117.170157,"Division":"Central","beatName":"521 East Village (Central)","street":NaN,"Race":"Black/African American"},{"lat":32.574204,"lon":-117.021553,"Division":"Southern","beatName":"725 Ocean Crest (Southern)","street":"otay","Race":"Hispanic/Latine(x)"},{"lat":32.838465,"lon":-117.233308,"Division":"Northern","beatName":"124 La Jolla (Northern)","street":"FOOTHILL DR","Race":"Hispanic/Latine(x)"},{"lat":32.724036,"lon":-117.152468,"Division":"Central","beatName":"523 Gaslamp (Central)","street":NaN,"Race":"White"},{"lat":32.683312,"lon":-117.043978,"Division":"Southeastern","beatName":"443 Shelltown (Southeastern)","street":"main","Race":"Hispanic/Latine(x)"},{"lat":32.695909,"lon":-117.048958,"Division":"Southeastern","beatName":"446 Lincoln Park (Southeastern)","street":"47th St","Race":"Black/African American"},{"lat":32.7114,"lon":-117.149897,"Division":"Central","beatName":"514 Sherman Heights (Central)","street":"MARKET","Race":"Hispanic/Latine(x)"},{"lat":32.699735,"lon":-117.046067,"Division":"Southeastern","beatName":"434 Jamacha/Lomita (Southeastern)","street":"cardiff st","Race":"Hispanic/Latine(x)"},{"lat":32.589356,"lon":-117.015233,"Division":"Southern","beatName":"714 Border (Southern)","street":"e. san ysidro blvd","Race":"Hispanic/Latine(x)"},{"lat":32.589356,"lon":-117.015233,"Division":"Southern","beatName":"714 Border (Southern)","street":"e. san Ysidro blvd","Race":"Hispanic/Latine(x)"},{"lat":32.755,"lon":-117.094,"Division":"Mid-City","beatName":"832 Teralta West (Mid-City)","street":"Marlborough Avenue","Race":"Black/African American"},{"lat":32.858769,"lon":-117.227975,"Division":"Northern","beatName":"122 Pacific Beach (Northern)","street":"Garnet Ave","Race":"White"},{"lat":32.697188,"lon":-117.055416,"Division":"Southeastern","beatName":"437 Bay Terraces (Southeastern)","street":"SKYLINE","Race":"Hispanic/Latine(x)"},{"lat":32.738447,"lon":-117.235796,"Division":"Western","beatName":"611 Midway District (Western)","street":"sports arena bl","Race":"Middle Eastern or South Asian"},{"lat":32.838465,"lon":-117.233308,"Division":"Northern","beatName":"124 La Jolla (Northern)","street":"N Torrey Pines Rd","Race":"Hispanic/Latine(x)"},{"lat":32.758517,"lon":-117.108285,"Division":"Mid-City","beatName":"831 Teralta East (Mid-City)","street":"euclid ave","Race":"Hispanic/Latine(x)"},{"lat":32.747518,"lon":-117.100523,"Division":"Mid-City","beatName":"821 Rolando (Mid-City)","street":"70th street","Race":"Black/African American"},{"lat":32.710785,"lon":-117.164541,"Division":"Central","beatName":"517 Golden Hill (Central)","street":"BROADWAY","Race":"Hispanic/Latine(x)"},{"lat":32.782998,"lon":-117.047312,"Division":"Eastern","beatName":"313 Kearney Mesa (Eastern)","street":"C M B","Race":"Hispanic/Latine(x)"},{"lat":32.796319,"lon":-117.058386,"Division":"Eastern","beatName":"324 Lake Murray (Eastern)","street":"NAVAJO ROAD","Race":"Black/African American"},{"lat":32.785231,"lon":-117.057632,"Division":"Eastern","beatName":"321 Grantville (Eastern)","street":"mission gorge","Race":"White"},{"lat":32.706931,"lon":-117.163125,"Division":"Central","beatName":"511 Barrio Logan (Central)","street":"newton ave","Race":"Hispanic/Latine(x)"},{"lat":32.705965,"lon":-117.165033,"Division":"Unknown","beatName":"999 Unknown (Unknown)","street":"Alvarado Road","Race":"Hispanic/Latine(x)"},{"lat":32.705965,"lon":-117.165033,"Division":"Unknown","beatName":"999 Unknown (Unknown)","street":"Alvarado Road","Race":"Hispanic/Latine(x)"},{"lat":32.705965,"lon":-117.165033,"Division":"Unknown","beatName":"999 Unknown (Unknown)","street":"Alvarado Road","Race":"Hispanic/Latine(x)"},{"lat":32.705965,"lon":-117.165033,"Division":"Unknown","beatName":"999 Unknown (Unknown)","street":"Alvarado Road","Race":"Hispanic/Latine(x)"},{"lat":32.705965,"lon":-117.165033,"Division":"Unknown","beatName":"999 Unknown (Unknown)","street":"Alvarado Road","Race":"Hispanic/Latine(x)"},{"lat":32.705965,"lon":-117.165033,"Division":"Unknown","beatName":"999 Unknown (Unknown)","street":"Alvarado Road","Race":"Hispanic/Latine(x)"},{"lat":32.705965,"lon":-117.165033,"Division":"Unknown","beatName":"999 Unknown (Unknown)","street":"Alvarado Road","Race":"Hispanic/Latine(x)"},{"lat":32.705965,"lon":-117.165033,"Division":"Unknown","beatName":"999 Unknown (Unknown)","street":"Alvarado Road","Race":"Hispanic/Latine(x)"},{"lat":32.705965,"lon":-117.165033,"Division":"Unknown","beatName":"999 Unknown (Unknown)","street":"Alvarado Road","Race":"Hispanic/Latine(x)"},{"lat":32.705965,"lon":-117.165033,"Division":"Unknown","beatName":"999 Unknown (Unknown)","street":"Alvarado Road","Race":"Hispanic/Latine(x)"},{"lat":32.705965,"lon":-117.165033,"Division":"Unknown","beatName":"999 Unknown (Unknown)","street":"Alvarado Road","Race":"Hispanic/Latine(x)"},{"lat":32.705965,"lon":-117.165033,"Division":"Unknown","beatName":"999 Unknown (Unknown)","street":"Alvarado Road","Race":"Hispanic/Latine(x)"},{"lat":32.705965,"lon":-117.165033,"Division":"Unknown","beatName":"999 Unknown (Unknown)","street":"Alvarado Road","Race":"Hispanic/Latine(x)"},{"lat":32.705965,"lon":-117.165033,"Division":"Unknown","beatName":"999 Unknown (Unknown)","street":"Alvarado Road","Race":"Hispanic/Latine(x)"},{"lat":32.705965,"lon":-117.165033,"Division":"Unknown","beatName":"999 Unknown (Unknown)","street":"Alvarado Road","Race":"Hispanic/Latine(x)"},{"lat":32.705965,"lon":-117.165033,"Division":"Unknown","beatName":"999 Unknown (Unknown)","street":"Alvarado Road","Race":"Hispanic/Latine(x)"},{"lat":32.705965,"lon":-117.165033,"Division":"Unknown","beatName":"999 Unknown (Unknown)","street":"Alvarado Road","Race":"Hispanic/Latine(x)"},{"lat":32.705965,"lon":-117.165033,"Division":"Unknown","beatName":"999 Unknown (Unknown)","street":"Alvarado Road","Race":"Hispanic/Latine(x)"},{"lat":32.705965,"lon":-117.165033,"Division":"Unknown","beatName":"999 Unknown (Unknown)","street":"Alvarado Road","Race":"Hispanic/Latine(x)"},{"lat":32.705965,"lon":-117.165033,"Division":"Unknown","beatName":"999 Unknown (Unknown)","street":"Alvarado Road","Race":"Hispanic/Latine(x)"},{"lat":32.705965,"lon":-117.165033,"Division":"Unknown","beatName":"999 Unknown (Unknown)","street":"Alvarado Road","Race":"Hispanic/Latine(x)"},{"lat":32.705965,"lon":-117.165033,"Division":"Unknown","beatName":"999 Unknown (Unknown)","street":"Alvarado Road","Race":"Hispanic/Latine(x)"},{"lat":32.705965,"lon":-117.165033,"Division":"Unknown","beatName":"999 Unknown (Unknown)","street":"Alvarado Road","Race":"Hispanic/Latine(x)"},{"lat":32.705965,"lon":-117.165033,"Division":"Unknown","beatName":"999 Unknown (Unknown)","street":"Alvarado Road","Race":"Hispanic/Latine(x)"},{"lat":32.705965,"lon":-117.165033,"Division":"Unknown","beatName":"999 Unknown (Unknown)","street":"Alvarado Road","Race":"Hispanic/Latine(x)"},{"lat":32.705965,"lon":-117.165033,"Division":"Unknown","beatName":"999 Unknown (Unknown)","street":"Alvarado Road","Race":"Hispanic/Latine(x)"},{"lat":32.705965,"lon":-117.165033,"Division":"Unknown","beatName":"999 Unknown (Unknown)","street":"Alvarado Road","Race":"Hispanic/Latine(x)"},{"lat":32.705965,"lon":-117.165033,"Division":"Unknown","beatName":"999 Unknown (Unknown)","street":"Alvarado Road","Race":"Hispanic/Latine(x)"},{"lat":32.705965,"lon":-117.165033,"Division":"Unknown","beatName":"999 Unknown (Unknown)","street":"Alvarado Road","Race":"Hispanic/Latine(x)"},{"lat":32.705965,"lon":-117.165033,"Division":"Unknown","beatName":"999 Unknown (Unknown)","street":"Alvarado Road","Race":"Hispanic/Latine(x)"},{"lat":32.705965,"lon":-117.165033,"Division":"Unknown","beatName":"999 Unknown (Unknown)","street":"Alvarado Road","Race":"Hispanic/Latine(x)"},{"lat":32.705965,"lon":-117.165033,"Division":"Unknown","beatName":"999 Unknown (Unknown)","street":"Alvarado Road","Race":"Hispanic/Latine(x)"},{"lat":32.705965,"lon":-117.165033,"Division":"Unknown","beatName":"999 Unknown (Unknown)","street":"Alvarado Road","Race":"Hispanic/Latine(x)"},{"lat":32.705965,"lon":-117.165033,"Division":"Unknown","beatName":"999 Unknown (Unknown)","street":"Alvarado Road","Race":"Hispanic/Latine(x)"},{"lat":32.705965,"lon":-117.165033,"Division":"Unknown","beatName":"999 Unknown (Unknown)","street":"Alvarado Road","Race":"Hispanic/Latine(x)"},{"lat":32.705965,"lon":-117.165033,"Division":"Unknown","beatName":"999 Unknown (Unknown)","street":"Alvarado Road","Race":"Hispanic/Latine(x)"},{"lat":32.705965,"lon":-117.165033,"Division":"Unknown","beatName":"999 Unknown (Unknown)","street":"Alvarado Road","Race":"Hispanic/Latine(x)"},{"lat":32.705965,"lon":-117.165033,"Division":"Unknown","beatName":"999 Unknown (Unknown)","street":"Alvarado Road","Race":"Hispanic/Latine(x)"},{"lat":32.705965,"lon":-117.165033,"Division":"Unknown","beatName":"999 Unknown (Unknown)","street":"Alvarado Road","Race":"Hispanic/Latine(x)"},{"lat":32.705965,"lon":-117.165033,"Division":"Unknown","beatName":"999 Unknown (Unknown)","street":"Alvarado Road","Race":"Hispanic/Latine(x)"},{"lat":32.705965,"lon":-117.165033,"Division":"Unknown","beatName":"999 Unknown (Unknown)","street":"Alvarado Road","Race":"Hispanic/Latine(x)"},{"lat":32.705965,"lon":-117.165033,"Division":"Unknown","beatName":"999 Unknown (Unknown)","street":"Alvarado Road","Race":"Hispanic/Latine(x)"},{"lat":32.705965,"lon":-117.165033,"Division":"Unknown","beatName":"999 Unknown (Unknown)","street":"Alvarado Road","Race":"Hispanic/Latine(x)"},{"lat":32.705965,"lon":-117.165033,"Division":"Unknown","beatName":"999 Unknown (Unknown)","street":"Alvarado Road","Race":"Hispanic/Latine(x)"},{"lat":32.705965,"lon":-117.165033,"Division":"Unknown","beatName":"999 Unknown (Unknown)","street":"Alvarado Road","Race":"Hispanic/Latine(x)"},{"lat":32.705965,"lon":-117.165033,"Division":"Unknown","beatName":"999 Unknown (Unknown)","street":"Alvarado Road","Race":"Hispanic/Latine(x)"},{"lat":32.705965,"lon":-117.165033,"Division":"Unknown","beatName":"999 Unknown (Unknown)","street":"Alvarado Road","Race":"Hispanic/Latine(x)"},{"lat":32.705965,"lon":-117.165033,"Division":"Unknown","beatName":"999 Unknown (Unknown)","street":"Alvarado Road","Race":"Hispanic/Latine(x)"},{"lat":32.705965,"lon":-117.165033,"Division":"Unknown","beatName":"999 Unknown (Unknown)","street":"Alvarado Road","Race":"Hispanic/Latine(x)"},{"lat":32.705965,"lon":-117.165033,"Division":"Unknown","beatName":"999 Unknown (Unknown)","street":"Alvarado Road","Race":"Hispanic/Latine(x)"},{"lat":32.705965,"lon":-117.165033,"Division":"Unknown","beatName":"999 Unknown (Unknown)","street":"Alvarado Road","Race":"Hispanic/Latine(x)"},{"lat":32.705965,"lon":-117.165033,"Division":"Unknown","beatName":"999 Unknown (Unknown)","street":"Alvarado Road","Race":"Hispanic/Latine(x)"},{"lat":32.705965,"lon":-117.165033,"Division":"Unknown","beatName":"999 Unknown (Unknown)","street":"Alvarado Road","Race":"Hispanic/Latine(x)"},{"lat":32.705965,"lon":-117.165033,"Division":"Unknown","beatName":"999 Unknown (Unknown)","street":"Alvarado Road","Race":"Hispanic/Latine(x)"},{"lat":32.705965,"lon":-117.165033,"Division":"Unknown","beatName":"999 Unknown (Unknown)","street":"Alvarado Road","Race":"Hispanic/Latine(x)"},{"lat":32.705965,"lon":-117.165033,"Division":"Unknown","beatName":"999 Unknown (Unknown)","street":"Alvarado Road","Race":"Hispanic/Latine(x)"},{"lat":32.705965,"lon":-117.165033,"Division":"Unknown","beatName":"999 Unknown (Unknown)","street":"Alvarado Road","Race":"Hispanic/Latine(x)"},{"lat":32.705965,"lon":-117.165033,"Division":"Unknown","beatName":"999 Unknown (Unknown)","street":"Alvarado Road","Race":"Hispanic/Latine(x)"},{"lat":32.705965,"lon":-117.165033,"Division":"Unknown","beatName":"999 Unknown (Unknown)","street":"Alvarado Road","Race":"Hispanic/Latine(x)"},{"lat":32.705965,"lon":-117.165033,"Division":"Unknown","beatName":"999 Unknown (Unknown)","street":"Alvarado Road","Race":"Hispanic/Latine(x)"},{"lat":32.705965,"lon":-117.165033,"Division":"Unknown","beatName":"999 Unknown (Unknown)","street":"Alvarado Road","Race":"Hispanic/Latine(x)"},{"lat":32.705965,"lon":-117.165033,"Division":"Unknown","beatName":"999 Unknown (Unknown)","street":"Alvarado Road","Race":"Hispanic/Latine(x)"},{"lat":32.705965,"lon":-117.165033,"Division":"Unknown","beatName":"999 Unknown (Unknown)","street":"Alvarado Road","Race":"Hispanic/Latine(x)"},{"lat":32.705965,"lon":-117.165033,"Division":"Unknown","beatName":"999 Unknown (Unknown)","street":"Alvarado Road","Race":"Hispanic/Latine(x)"},{"lat":32.69856,"lon":-117.047219,"Division":"Southeastern","beatName":"451 Oak Park (Southeastern)","street":"Bayview Heights","Race":"Black/African American"},{"lat":32.69856,"lon":-117.047219,"Division":"Southeastern","beatName":"451 Oak Park (Southeastern)","street":"Bayview Heights","Race":"Black/African American"},{"lat":32.69856,"lon":-117.047219,"Division":"Southeastern","beatName":"451 Oak Park (Southeastern)","street":"Bayview Heights","Race":"Black/African American"},{"lat":32.69856,"lon":-117.047219,"Division":"Southeastern","beatName":"451 Oak Park (Southeastern)","street":"Bayview Heights","Race":"Black/African American"},{"lat":32.69856,"lon":-117.047219,"Division":"Southeastern","beatName":"451 Oak Park (Southeastern)","street":"Bayview Heights","Race":"Black/African American"},{"lat":32.69856,"lon":-117.047219,"Division":"Southeastern","beatName":"451 Oak Park (Southeastern)","street":"Bayview Heights","Race":"Black/African American"},{"lat":32.69856,"lon":-117.047219,"Division":"Southeastern","beatName":"451 Oak Park (Southeastern)","street":"Bayview Heights","Race":"Black/African American"},{"lat":32.69856,"lon":-117.047219,"Division":"Southeastern","beatName":"451 Oak Park (Southeastern)","street":"Bayview Heights","Race":"Black/African American"},{"lat":32.853,"lon":-117.224804,"Division":"Northern","beatName":"114 North Clairemont (Northern)","street":"GENESEE AVE","Race":"Black/African American"},{"lat":32.705965,"lon":-117.165033,"Division":"Unknown","beatName":"999 Unknown (Unknown)","street":"Clairemont Mesa Blvd","Race":"White"},{"lat":32.705965,"lon":-117.165033,"Division":"Unknown","beatName":"999 Unknown (Unknown)","street":"Clairemont Mesa Blvd","Race":"Hispanic/Latine(x)"},{"lat":32.782998,"lon":-117.047312,"Division":"Eastern","beatName":"313 Kearney Mesa (Eastern)","street":"BALBOA AVE","Race":"White"},{"lat":32.704914,"lon":-117.16636,"Division":"Central","beatName":"524 Core-Columbia (Central)","street":"BEACH","Race":"Black/African American"},{"lat":32.838465,"lon":-117.233308,"Division":"Northern","beatName":"124 La Jolla (Northern)","street":"NAUTILUS STREET","Race":"Asian"},{"lat":32.753447,"lon":-117.094204,"Division":"Mid-City","beatName":"826 Colina Del Sol (Mid-City)","street":"TROJAN AVE","Race":"Hispanic/Latine(x)"},{"lat":32.758288,"lon":-117.093259,"Division":"Mid-City","beatName":"822 El Cerrito (Mid-City)","street":"LANTANA DR.","Race":"White"},{"lat":32.838465,"lon":-117.233308,"Division":"Northern","beatName":"124 La Jolla (Northern)","street":"NAUTILUS ST","Race":"Hispanic/Latine(x)"},{"lat":32.758517,"lon":-117.108285,"Division":"Mid-City","beatName":"831 Teralta East (Mid-City)","street":"EUCLID","Race":"Black/African American"},{"lat":32.700495,"lon":-117.055818,"Division":"Southeastern","beatName":"442 Southcrest (Southeastern)","street":"s 43rd st","Race":"Hispanic/Latine(x)"},{"lat":32.700495,"lon":-117.055818,"Division":"Southeastern","beatName":"442 Southcrest (Southeastern)","street":"s 43rd st","Race":"Hispanic/Latine(x)"},{"lat":32.700495,"lon":-117.055818,"Division":"Southeastern","beatName":"442 Southcrest (Southeastern)","street":"s 43rd st","Race":"Hispanic/Latine(x)"},{"lat":32.700495,"lon":-117.055818,"Division":"Southeastern","beatName":"442 Southcrest (Southeastern)","street":"s 43rd st","Race":"Hispanic/Latine(x)"},{"lat":32.700495,"lon":-117.055818,"Division":"Southeastern","beatName":"442 Southcrest (Southeastern)","street":"s 43rd st","Race":"Hispanic/Latine(x)"},{"lat":32.700495,"lon":-117.055818,"Division":"Southeastern","beatName":"442 Southcrest (Southeastern)","street":"s 43rd st","Race":"Hispanic/Latine(x)"},{"lat":32.700495,"lon":-117.055818,"Division":"Southeastern","beatName":"442 Southcrest (Southeastern)","street":"s 43rd st","Race":"Hispanic/Latine(x)"},{"lat":32.700495,"lon":-117.055818,"Division":"Southeastern","beatName":"442 Southcrest (Southeastern)","street":"s 43rd st","Race":"Hispanic/Latine(x)"},{"lat":32.700495,"lon":-117.055818,"Division":"Southeastern","beatName":"442 Southcrest (Southeastern)","street":"s 43rd st","Race":"Hispanic/Latine(x)"},{"lat":32.700495,"lon":-117.055818,"Division":"Southeastern","beatName":"442 Southcrest (Southeastern)","street":"s 43rd st","Race":"Hispanic/Latine(x)"},{"lat":32.700495,"lon":-117.055818,"Division":"Southeastern","beatName":"442 Southcrest (Southeastern)","street":"s 43rd st","Race":"Hispanic/Latine(x)"},{"lat":32.700495,"lon":-117.055818,"Division":"Southeastern","beatName":"442 Southcrest (Southeastern)","street":"s 43rd st","Race":"Hispanic/Latine(x)"},{"lat":32.700495,"lon":-117.055818,"Division":"Southeastern","beatName":"442 Southcrest (Southeastern)","street":"s 43rd st","Race":"Hispanic/Latine(x)"},{"lat":32.700495,"lon":-117.055818,"Division":"Southeastern","beatName":"442 Southcrest (Southeastern)","street":"s 43rd st","Race":"Hispanic/Latine(x)"},{"lat":32.700495,"lon":-117.055818,"Division":"Southeastern","beatName":"442 Southcrest (Southeastern)","street":"s 43rd st","Race":"Hispanic/Latine(x)"},{"lat":32.700495,"lon":-117.055818,"Division":"Southeastern","beatName":"442 Southcrest (Southeastern)","street":"s 43rd st","Race":"Hispanic/Latine(x)"},{"lat":32.700495,"lon":-117.055818,"Division":"Southeastern","beatName":"442 Southcrest (Southeastern)","street":"s 43rd st","Race":"Hispanic/Latine(x)"},{"lat":32.700495,"lon":-117.055818,"Division":"Southeastern","beatName":"442 Southcrest (Southeastern)","street":"s 43rd st","Race":"Hispanic/Latine(x)"},{"lat":32.700495,"lon":-117.055818,"Division":"Southeastern","beatName":"442 Southcrest (Southeastern)","street":"s 43rd st","Race":"Hispanic/Latine(x)"},{"lat":32.700495,"lon":-117.055818,"Division":"Southeastern","beatName":"442 Southcrest (Southeastern)","street":"s 43rd st","Race":"Hispanic/Latine(x)"},{"lat":32.700495,"lon":-117.055818,"Division":"Southeastern","beatName":"442 Southcrest (Southeastern)","street":"s 43rd st","Race":"Hispanic/Latine(x)"},{"lat":32.700495,"lon":-117.055818,"Division":"Southeastern","beatName":"442 Southcrest (Southeastern)","street":"s 43rd st","Race":"Hispanic/Latine(x)"},{"lat":32.700495,"lon":-117.055818,"Division":"Southeastern","beatName":"442 Southcrest (Southeastern)","street":"s 43rd st","Race":"Hispanic/Latine(x)"},{"lat":32.700495,"lon":-117.055818,"Division":"Southeastern","beatName":"442 Southcrest (Southeastern)","street":"s 43rd st","Race":"Hispanic/Latine(x)"},{"lat":32.700495,"lon":-117.055818,"Division":"Southeastern","beatName":"442 Southcrest (Southeastern)","street":"s 43rd st","Race":"Hispanic/Latine(x)"},{"lat":32.700495,"lon":-117.055818,"Division":"Southeastern","beatName":"442 Southcrest (Southeastern)","street":"s 43rd st","Race":"Hispanic/Latine(x)"},{"lat":32.700495,"lon":-117.055818,"Division":"Southeastern","beatName":"442 Southcrest (Southeastern)","street":"s 43rd st","Race":"Hispanic/Latine(x)"},{"lat":32.589356,"lon":-117.015233,"Division":"Southern","beatName":"714 Border (Southern)","street":"e san ysidro blvd","Race":"Hispanic/Latine(x)"},{"lat":32.838465,"lon":-117.233308,"Division":"Northern","beatName":"124 La Jolla (Northern)","street":"girard","Race":"Black/African American"},{"lat":32.699735,"lon":-117.046067,"Division":"Southeastern","beatName":"434 Jamacha/Lomita (Southeastern)","street":"CARDIFF ST","Race":"Hispanic/Latine(x)"},{"lat":32.705965,"lon":-117.165033,"Division":"Unknown","beatName":"999 Unknown (Unknown)","street":"ROOSEVELT","Race":"Black/African American"},{"lat":32.706931,"lon":-117.163125,"Division":"Central","beatName":"511 Barrio Logan (Central)","street":"newton","Race":"Hispanic/Latine(x)"},{"lat":32.706931,"lon":-117.163125,"Division":"Central","beatName":"511 Barrio Logan (Central)","street":"newton","Race":"Hispanic/Latine(x)"},{"lat":32.706931,"lon":-117.163125,"Division":"Central","beatName":"511 Barrio Logan (Central)","street":"newton","Race":"Hispanic/Latine(x)"},{"lat":32.706931,"lon":-117.163125,"Division":"Central","beatName":"511 Barrio Logan (Central)","street":"newton","Race":"Hispanic/Latine(x)"},{"lat":32.706931,"lon":-117.163125,"Division":"Central","beatName":"511 Barrio Logan (Central)","street":"newton","Race":"Hispanic/Latine(x)"},{"lat":32.706931,"lon":-117.163125,"Division":"Central","beatName":"511 Barrio Logan (Central)","street":"newton","Race":"Hispanic/Latine(x)"},{"lat":32.706931,"lon":-117.163125,"Division":"Central","beatName":"511 Barrio Logan (Central)","street":"newton","Race":"Hispanic/Latine(x)"},{"lat":32.706931,"lon":-117.163125,"Division":"Central","beatName":"511 Barrio Logan (Central)","street":"newton","Race":"Hispanic/Latine(x)"},{"lat":32.706931,"lon":-117.163125,"Division":"Central","beatName":"511 Barrio Logan (Central)","street":"newton","Race":"Hispanic/Latine(x)"},{"lat":32.706931,"lon":-117.163125,"Division":"Central","beatName":"511 Barrio Logan (Central)","street":"newton","Race":"Hispanic/Latine(x)"},{"lat":32.706931,"lon":-117.163125,"Division":"Central","beatName":"511 Barrio Logan (Central)","street":"newton","Race":"Hispanic/Latine(x)"},{"lat":32.706931,"lon":-117.163125,"Division":"Central","beatName":"511 Barrio Logan (Central)","street":"newton","Race":"Hispanic/Latine(x)"},{"lat":32.706931,"lon":-117.163125,"Division":"Central","beatName":"511 Barrio Logan (Central)","street":"newton","Race":"Hispanic/Latine(x)"},{"lat":32.706931,"lon":-117.163125,"Division":"Central","beatName":"511 Barrio Logan (Central)","street":"newton","Race":"Hispanic/Latine(x)"},{"lat":32.706931,"lon":-117.163125,"Division":"Central","beatName":"511 Barrio Logan (Central)","street":"newton","Race":"Hispanic/Latine(x)"},{"lat":32.706931,"lon":-117.163125,"Division":"Central","beatName":"511 Barrio Logan (Central)","street":"newton","Race":"Hispanic/Latine(x)"},{"lat":32.706931,"lon":-117.163125,"Division":"Central","beatName":"511 Barrio Logan (Central)","street":"newton","Race":"Hispanic/Latine(x)"},{"lat":32.706931,"lon":-117.163125,"Division":"Central","beatName":"511 Barrio Logan (Central)","street":"newton","Race":"Hispanic/Latine(x)"},{"lat":32.706931,"lon":-117.163125,"Division":"Central","beatName":"511 Barrio Logan (Central)","street":"newton","Race":"Hispanic/Latine(x)"},{"lat":32.706931,"lon":-117.163125,"Division":"Central","beatName":"511 Barrio Logan (Central)","street":"newton","Race":"Hispanic/Latine(x)"},{"lat":32.706931,"lon":-117.163125,"Division":"Central","beatName":"511 Barrio Logan (Central)","street":"newton","Race":"Hispanic/Latine(x)"},{"lat":32.706931,"lon":-117.163125,"Division":"Central","beatName":"511 Barrio Logan (Central)","street":"newton","Race":"Hispanic/Latine(x)"},{"lat":32.706931,"lon":-117.163125,"Division":"Central","beatName":"511 Barrio Logan (Central)","street":"newton","Race":"Hispanic/Latine(x)"},{"lat":32.706931,"lon":-117.163125,"Division":"Central","beatName":"511 Barrio Logan (Central)","street":"newton","Race":"Hispanic/Latine(x)"},{"lat":32.706931,"lon":-117.163125,"Division":"Central","beatName":"511 Barrio Logan (Central)","street":"newton","Race":"Hispanic/Latine(x)"},{"lat":32.706931,"lon":-117.163125,"Division":"Central","beatName":"511 Barrio Logan (Central)","street":"newton","Race":"Hispanic/Latine(x)"},{"lat":32.706931,"lon":-117.163125,"Division":"Central","beatName":"511 Barrio Logan (Central)","street":"newton","Race":"Hispanic/Latine(x)"},{"lat":32.706931,"lon":-117.163125,"Division":"Central","beatName":"511 Barrio Logan (Central)","street":"NATIONAL AVENUE","Race":"Hispanic/Latine(x)"},{"lat":32.737933,"lon":-117.237209,"Division":"Western","beatName":"628 Midtown (Western)","street":"india st","Race":"White"},{"lat":32.723573,"lon":-117.170157,"Division":"Central","beatName":"521 East Village (Central)","street":"17TH STREET","Race":"Hispanic/Latine(x)"},{"lat":32.692052,"lon":-117.044362,"Division":"Southeastern","beatName":"445 Chollas View (Southeastern)","street":"47th street","Race":"Hispanic/Latine(x)"},{"lat":32.709632,"lon":-117.156692,"Division":"Central","beatName":"526 Cortez (Central)","street":NaN,"Race":"Hispanic/Latine(x)"},{"lat":32.697188,"lon":-117.055416,"Division":"Southeastern","beatName":"437 Bay Terraces (Southeastern)","street":"paradise valley","Race":"Black/African American"},{"lat":32.705965,"lon":-117.165033,"Division":"Unknown","beatName":"999 Unknown (Unknown)","street":"ALPHA STREET","Race":"Hispanic/Latine(x)"},{"lat":32.706931,"lon":-117.163125,"Division":"Central","beatName":"511 Barrio Logan (Central)","street":"yama st","Race":"Black/African American"},{"lat":32.706931,"lon":-117.163125,"Division":"Central","beatName":"511 Barrio Logan (Central)","street":"yama st","Race":"Black/African American"},{"lat":32.706931,"lon":-117.163125,"Division":"Central","beatName":"511 Barrio Logan (Central)","street":"yama st","Race":"Black/African American"},{"lat":32.706931,"lon":-117.163125,"Division":"Central","beatName":"511 Barrio Logan (Central)","street":"yama st","Race":"Black/African American"},{"lat":32.700495,"lon":-117.055818,"Division":"Southeastern","beatName":"442 Southcrest (Southeastern)","street":"Beta","Race":"Hispanic/Latine(x)"},{"lat":32.783782,"lon":-117.054194,"Division":"Eastern","beatName":"315 Mission Valley East (Eastern)","street":"MISSION CENTER RD","Race":"White"},{"lat":32.705965,"lon":-117.165033,"Division":"Unknown","beatName":"999 Unknown (Unknown)","street":"Friars Road","Race":"Middle Eastern or South Asian"},{"lat":32.705965,"lon":-117.165033,"Division":"Unknown","beatName":"999 Unknown (Unknown)","street":"Friars Road","Race":"Hispanic/Latine(x)"},{"lat":32.798386,"lon":-117.043681,"Division":"Eastern","beatName":"327 College East (Eastern)","street":"mohawk","Race":"Black/African American"},{"lat":32.753447,"lon":-117.094204,"Division":"Mid-City","beatName":"826 Colina Del Sol (Mid-City)","street":"48TH ST","Race":"Hispanic/Latine(x)"},{"lat":32.737638,"lon":-117.240231,"Division":"Western","beatName":"613 Point Loma Heights (Western)","street":NaN,"Race":"Hispanic/Latine(x)"},{"lat":32.737638,"lon":-117.240231,"Division":"Western","beatName":"613 Point Loma Heights (Western)","street":NaN,"Race":"Hispanic/Latine(x)"},{"lat":32.737638,"lon":-117.240231,"Division":"Western","beatName":"613 Point Loma Heights (Western)","street":NaN,"Race":"Hispanic/Latine(x)"},{"lat":32.737638,"lon":-117.240231,"Division":"Western","beatName":"613 Point Loma Heights (Western)","street":NaN,"Race":"Hispanic/Latine(x)"},{"lat":32.737638,"lon":-117.240231,"Division":"Western","beatName":"613 Point Loma Heights (Western)","street":NaN,"Race":"Hispanic/Latine(x)"},{"lat":32.737638,"lon":-117.240231,"Division":"Western","beatName":"613 Point Loma Heights (Western)","street":NaN,"Race":"Hispanic/Latine(x)"},{"lat":32.737638,"lon":-117.240231,"Division":"Western","beatName":"613 Point Loma Heights (Western)","street":NaN,"Race":"Hispanic/Latine(x)"},{"lat":32.737638,"lon":-117.240231,"Division":"Western","beatName":"613 Point Loma Heights (Western)","street":NaN,"Race":"Hispanic/Latine(x)"},{"lat":32.737638,"lon":-117.240231,"Division":"Western","beatName":"625 Old Town (Western)","street":"Pacific Highway","Race":"Hispanic/Latine(x)"},{"lat":32.838029,"lon":-117.229163,"Division":"Northern","beatName":"115 University City (Northern)","street":"GENESEE AVE","Race":"Hispanic/Latine(x)"},{"lat":32.705965,"lon":-117.165033,"Division":"Unknown","beatName":"999 Unknown (Unknown)","street":NaN,"Race":"Black/African American"},{"lat":32.858607,"lon":-117.232631,"Division":"Northern","beatName":"112 Clairemont Mesa West (Northern)","street":"clairemont dr","Race":"White"},{"lat":32.800041,"lon":-117.04693,"Division":"Eastern","beatName":"326 College West (Eastern)","street":"EL CAJON BLVD","Race":"White"},{"lat":32.841655,"lon":-117.226629,"Division":"Northern","beatName":"111 Clairemont Mesa East (Northern)","street":"Beadnell Way","Race":"White"},{"lat":32.695909,"lon":-117.048958,"Division":"Southeastern","beatName":"446 Lincoln Park (Southeastern)","street":"imperial","Race":"Black/African American"},{"lat":32.758517,"lon":-117.108285,"Division":"Mid-City","beatName":"831 Teralta East (Mid-City)","street":"orange ave","Race":"Hispanic/Latine(x)"},{"lat":32.738447,"lon":-117.235796,"Division":"Western","beatName":"611 Midway District (Western)","street":"SPORTS ARENA","Race":"White"},{"lat":32.74566,"lon":-117.23492,"Division":"Western","beatName":"615 Roseville/Fleet Ridge (Western)","street":"rosecrans st","Race":"White"},{"lat":32.74566,"lon":-117.23492,"Division":"Western","beatName":"615 Roseville/Fleet Ridge (Western)","street":"rosecrans st","Race":"Middle Eastern or South Asian"},{"lat":32.74566,"lon":-117.23492,"Division":"Western","beatName":"615 Roseville/Fleet Ridge (Western)","street":"rosecrans st","Race":"Hispanic/Latine(x)"},{"lat":32.704914,"lon":-117.16636,"Division":"Central","beatName":"524 Core-Columbia (Central)","street":"w. beech st","Race":"Hispanic/Latine(x)"},{"lat":32.705965,"lon":-117.165033,"Division":"Unknown","beatName":"999 Unknown (Unknown)","street":NaN,"Race":"Pacific Islander"},{"lat":32.953517,"lon":-117.248285,"Division":"Northwestern","beatName":"934 Carmel Valley (Northwestern)","street":"el camino real","Race":"White"},{"lat":32.706931,"lon":-117.163125,"Division":"Central","beatName":"511 Barrio Logan (Central)","street":"Main Street","Race":"Black/African American"},{"lat":32.706931,"lon":-117.163125,"Division":"Central","beatName":"511 Barrio Logan (Central)","street":"Main Street","Race":"Black/African American"},{"lat":32.706931,"lon":-117.163125,"Division":"Central","beatName":"511 Barrio Logan (Central)","street":"Main Street","Race":"Black/African American"}]